name,street,postcode,city,latitude,longitude,profiles
Arkkitehtitoimisto Jari Hintsala,Leirintäalueentie 3,97700,Ranua,60.5822395,24.0718901,https://www.finder.fi/Arkkitehtitoimisto+suunnittelutoimisto/Arkkitehtitoimisto+Jari+Hintsala/Ranua/yhteystiedot/394873
Arkkitehtitoimisto Juhani Aalto Oy,Iso Kylätie 43,04130,Sipoo,60.3735053,25.2660625,https://www.finder.fi/Arkkitehtitoimisto+suunnittelutoimisto/Arkkitehtitoimisto+Juhani+Aalto+Oy/Sipoo/yhteystiedot/3046970
Aihio Arkkitehdit Oy,Satakunnankatu 18 A,33210,Tampere,61.5010434,23.7632561,https://www.finder.fi/Arkkitehtitoimisto+suunnittelutoimisto/Aihio+Arkkitehdit+Oy/Tampere/yhteystiedot/116557
Arkkitehtitoimisto Antti Heikkilä Oy,Äyritie 8 C,01510,Vantaa,60.292776950000004,24.96973014440453,https://www.finder.fi/Arkkitehtitoimisto+suunnittelutoimisto/Arkkitehtitoimisto+Antti+Heikkil%C3%A4+Oy/Vantaa/yhteystiedot/893457
Arkkitehtisuunnittelu Arkilla Oy,Käsityöläiskatu 4,45100,Kouvola,63.1091039,21.59678495266622,https://www.finder.fi/Arkkitehtitoimisto+suunnittelutoimisto/Arkkitehtisuunnittelu+Arkilla+Oy/Kouvola/yhteystiedot/1703503
Arkkitehtuuritoimisto Vihanto & Co Oy,Satakunnankatu 33 b,33210,Tampere,61.5010434,23.7632561,https://www.finder.fi/Arkkitehtitoimisto+suunnittelutoimisto/Arkkitehtuuritoimisto+Vihanto+%26+Co+Oy/Tampere/yhteystiedot/366330
KVA Arkkitehdit Oy,Keilaniementie 1,02150,Espoo,60.1752323,24.8303779,https://www.finder.fi/Arkkitehtitoimisto+suunnittelutoimisto/KVA+Arkkitehdit+Oy/Espoo/yhteystiedot/125746
Suunnittelutoimisto Insar Oy,Torikatu 1,38200,Sastamala,40.881615249999996,29.36895819846194,https://www.finder.fi/Arkkitehtitoimisto+suunnittelutoimisto/Suunnittelutoimisto+Insar+Oy/Sastamala/yhteystiedot/895400
Suunnittelutoimisto Pauli Nuutinen Ky,Jokikatu 7,80220,Joensuu,62.59576945,29.76977961387928,https://www.finder.fi/Arkkitehtitoimisto+suunnittelutoimisto/Suunnittelutoimisto+Pauli+Nuutinen+Ky/Joensuu/yhteystiedot/413242
K-Suunnittelu Savonlinna / EL Palsa,Olavinkatu 52,57100,Savonlinna,61.870291,28.8764013,https://www.finder.fi/Rakennuttajapalvelu/K-Suunnittelu+Savonlinna+EL+Palsa/Savonlinna/yhteystiedot/3357243
HMT Arkkitehdit Oy,Hämeentie 155,00560,Helsinki,60.1980088,24.9619986,https://www.finder.fi/Arkkitehtitoimisto+suunnittelutoimisto/HMT+Arkkitehdit+Oy/Helsinki/yhteystiedot/233620
LPR-arkkitehdit Oy,Kauppiaskatu 5 A,20100,Turku,60.450331,22.270436,https://www.finder.fi/Arkkitehtitoimisto+suunnittelutoimisto/LPR-arkkitehdit+Oy/Turku/yhteystiedot/125767
ArkVisio Oy,Puustellinpolku 12,00410,Helsinki,60.2452849,24.860961464850973,https://www.finder.fi/Arkkitehtitoimisto+suunnittelutoimisto/ArkVisio+Oy/Helsinki/yhteystiedot/307235
Arkkitehtitoimisto Hyvärinen & Co Oy,Vattuniemenkatu 15 A,00210,Helsinki,60.1519235,24.8855858,https://www.finder.fi/Arkkitehtitoimisto+suunnittelutoimisto/Arkkitehtitoimisto+Hyv%C3%A4rinen+%26+Co+Oy/Helsinki/yhteystiedot/187172
Arkkitehtuuritoimisto Arsatek Oy,Possijärvenkatu 1,33400,Tampere,61.517688,23.6632068,https://www.finder.fi/Arkkitehtitoimisto+suunnittelutoimisto/Arkkitehtuuritoimisto+Arsatek+Oy/Tampere/yhteystiedot/116620
Kakadu,Kaikukatu 2 C,00530,Helsinki,60.1831578,24.9585399,https://www.finder.fi/Sisustusarkkitehtitoimisto/Kakadu/Helsinki/yhteystiedot/1240703
Arkkitehtitoimisto Jorma Paloranta Oy,Kyöstintie 29,84100,Ylivieska,60.7715377,26.795267,https://www.finder.fi/Arkkitehtitoimisto+suunnittelutoimisto/Arkkitehtitoimisto+Jorma+Paloranta+Oy/Ylivieska/yhteystiedot/125732
Arkkitehtitoimisto Jorma Paloranta Oy,Läntinen kirkkokatu 5,67100,Kokkola,63.836651599999996,23.127628993368567,https://www.finder.fi/Arkkitehtitoimisto+suunnittelutoimisto/Arkkitehtitoimisto+Jorma+Paloranta+Oy/Kokkola/yhteystiedot/1833155
Arkkitehtuuritoimisto Jaakko Nieminen Oy,Alinenkatu 43,37100,Nokia,61.1231846,21.510432,https://www.finder.fi/Arkkitehtitoimisto+suunnittelutoimisto/Arkkitehtuuritoimisto+Jaakko+Nieminen+Oy/Nokia/yhteystiedot/116524
Suunnittelu- ja Piirustuspalvelu A Heikkinen Oy,Kintastie 4,87700,Kajaani,65.0257632,25.5297547,https://www.finder.fi/Arkkitehtitoimisto+suunnittelutoimisto/Suunnittelu-+ja+Piirustuspalvelu+A+Heikkinen+Oy/Kajaani/yhteystiedot/3149733
Arkyhtymä Oy,Viipurintie 45,15150,Lahti,60.975027499999996,25.695968264622415,https://www.finder.fi/Arkkitehtitoimisto+suunnittelutoimisto/Arkyhtym%C3%A4+Oy/Lahti/yhteystiedot/125983
Ajan Arkkitehdit Oy,Raatihuoneenkatu 19 B,5.,"kerros, 13100 Hämeenlinna",60.9959714,24.4642564,https://www.finder.fi/Arkkitehtitoimisto+suunnittelutoimisto/Ajan+Arkkitehdit+Oy/H%C3%A4meenlinna/yhteystiedot/351431
Arkkitehtitoimisto Jari Hintsala,Leirintäalueentie 3,97700,Ranua,60.5822395,24.0718901,https://www.finder.fi/Arkkitehtitoimisto+suunnittelutoimisto/Arkkitehtitoimisto+Jari+Hintsala/Ranua/yhteystiedot/394873
Arkkitehtitoimisto Juhani Aalto Oy,Iso Kylätie 43,04130,Sipoo,60.3735053,25.2660625,https://www.finder.fi/Arkkitehtitoimisto+suunnittelutoimisto/Arkkitehtitoimisto+Juhani+Aalto+Oy/Sipoo/yhteystiedot/3046970
Aihio Arkkitehdit Oy,Satakunnankatu 18 A,33210,Tampere,61.5010434,23.7632561,https://www.finder.fi/Arkkitehtitoimisto+suunnittelutoimisto/Aihio+Arkkitehdit+Oy/Tampere/yhteystiedot/116557
Arkkitehtitoimisto Antti Heikkilä Oy,Äyritie 8 C,01510,Vantaa,60.292776950000004,24.96973014440453,https://www.finder.fi/Arkkitehtitoimisto+suunnittelutoimisto/Arkkitehtitoimisto+Antti+Heikkil%C3%A4+Oy/Vantaa/yhteystiedot/893457
Arkkitehtisuunnittelu Arkilla Oy,Käsityöläiskatu 4,45100,Kouvola,63.1091039,21.59678495266622,https://www.finder.fi/Arkkitehtitoimisto+suunnittelutoimisto/Arkkitehtisuunnittelu+Arkilla+Oy/Kouvola/yhteystiedot/1703503
Arkkitehtuuritoimisto Vihanto & Co Oy,Satakunnankatu 33 b,33210,Tampere,61.5010434,23.7632561,https://www.finder.fi/Arkkitehtitoimisto+suunnittelutoimisto/Arkkitehtuuritoimisto+Vihanto+%26+Co+Oy/Tampere/yhteystiedot/366330
KVA Arkkitehdit Oy,Keilaniementie 1,02150,Espoo,60.1752323,24.8303779,https://www.finder.fi/Arkkitehtitoimisto+suunnittelutoimisto/KVA+Arkkitehdit+Oy/Espoo/yhteystiedot/125746
Suunnittelutoimisto Insar Oy,Torikatu 1,38200,Sastamala,40.881615249999996,29.36895819846194,https://www.finder.fi/Arkkitehtitoimisto+suunnittelutoimisto/Suunnittelutoimisto+Insar+Oy/Sastamala/yhteystiedot/895400
Suunnittelutoimisto Pauli Nuutinen Ky,Jokikatu 7,80220,Joensuu,62.59576945,29.76977961387928,https://www.finder.fi/Arkkitehtitoimisto+suunnittelutoimisto/Suunnittelutoimisto+Pauli+Nuutinen+Ky/Joensuu/yhteystiedot/413242
K-Suunnittelu Savonlinna / EL Palsa,Olavinkatu 52,57100,Savonlinna,61.870291,28.8764013,https://www.finder.fi/Rakennuttajapalvelu/K-Suunnittelu+Savonlinna+EL+Palsa/Savonlinna/yhteystiedot/3357243
HMT Arkkitehdit Oy,Hämeentie 155,00560,Helsinki,60.1980088,24.9619986,https://www.finder.fi/Arkkitehtitoimisto+suunnittelutoimisto/HMT+Arkkitehdit+Oy/Helsinki/yhteystiedot/233620
LPR-arkkitehdit Oy,Kauppiaskatu 5 A,20100,Turku,60.450331,22.270436,https://www.finder.fi/Arkkitehtitoimisto+suunnittelutoimisto/LPR-arkkitehdit+Oy/Turku/yhteystiedot/125767
ArkVisio Oy,Puustellinpolku 12,00410,Helsinki,60.2452849,24.860961464850973,https://www.finder.fi/Arkkitehtitoimisto+suunnittelutoimisto/ArkVisio+Oy/Helsinki/yhteystiedot/307235
Arkkitehtitoimisto Hyvärinen & Co Oy,Vattuniemenkatu 15 A,00210,Helsinki,60.1519235,24.8855858,https://www.finder.fi/Arkkitehtitoimisto+suunnittelutoimisto/Arkkitehtitoimisto+Hyv%C3%A4rinen+%26+Co+Oy/Helsinki/yhteystiedot/187172
Arkkitehtuuritoimisto Arsatek Oy,Possijärvenkatu 1,33400,Tampere,61.517688,23.6632068,https://www.finder.fi/Arkkitehtitoimisto+suunnittelutoimisto/Arkkitehtuuritoimisto+Arsatek+Oy/Tampere/yhteystiedot/116620
Kakadu,Kaikukatu 2 C,00530,Helsinki,60.1831578,24.9585399,https://www.finder.fi/Sisustusarkkitehtitoimisto/Kakadu/Helsinki/yhteystiedot/1240703
Arkkitehtitoimisto Jorma Paloranta Oy,Kyöstintie 29,84100,Ylivieska,60.7715377,26.795267,https://www.finder.fi/Arkkitehtitoimisto+suunnittelutoimisto/Arkkitehtitoimisto+Jorma+Paloranta+Oy/Ylivieska/yhteystiedot/125732
Arkkitehtitoimisto Jorma Paloranta Oy,Läntinen kirkkokatu 5,67100,Kokkola,63.836651599999996,23.127628993368567,https://www.finder.fi/Arkkitehtitoimisto+suunnittelutoimisto/Arkkitehtitoimisto+Jorma+Paloranta+Oy/Kokkola/yhteystiedot/1833155
Arkkitehtuuritoimisto Jaakko Nieminen Oy,Alinenkatu 43,37100,Nokia,61.1231846,21.510432,https://www.finder.fi/Arkkitehtitoimisto+suunnittelutoimisto/Arkkitehtuuritoimisto+Jaakko+Nieminen+Oy/Nokia/yhteystiedot/116524
Suunnittelu- ja Piirustuspalvelu A Heikkinen Oy,Kintastie 4,87700,Kajaani,65.0257632,25.5297547,https://www.finder.fi/Arkkitehtitoimisto+suunnittelutoimisto/Suunnittelu-+ja+Piirustuspalvelu+A+Heikkinen+Oy/Kajaani/yhteystiedot/3149733
Arkyhtymä Oy,Viipurintie 45,15150,Lahti,60.975027499999996,25.695968264622415,https://www.finder.fi/Arkkitehtitoimisto+suunnittelutoimisto/Arkyhtym%C3%A4+Oy/Lahti/yhteystiedot/125983
Ajan Arkkitehdit Oy,Raatihuoneenkatu 19 B,5.,"kerros, 13100 Hämeenlinna",60.9959714,24.4642564,https://www.finder.fi/Arkkitehtitoimisto+suunnittelutoimisto/Ajan+Arkkitehdit+Oy/H%C3%A4meenlinna/yhteystiedot/351431
Suunnittelutalo PPG Oy,Virtaintie 17,34800,Virrat,60.1925301,24.9566247,https://www.finder.fi/Arkkitehtitoimisto+suunnittelutoimisto/Suunnittelutalo+PPG+Oy/Virrat/yhteystiedot/1665661
Arkitektbyrå R. Wingren Ab,Villavägen 8,68580,Larsmo,58.60868,11.4741399,https://www.finder.fi/Arkkitehtitoimisto+suunnittelutoimisto/Arkitektbyr%C3%A5+R+Wingren+Ab/Larsmo/yhteystiedot/403874
Arkkitehtitoimisto Vapaavuori Oy,Itäinen Rantakatu 64,20810,Turku,60.4395964,22.246827,https://www.finder.fi/Arkkitehtitoimisto+suunnittelutoimisto/Arkkitehtitoimisto+Vapaavuori+Oy/Turku/yhteystiedot/125617
Sigge Arkkitehdit Oy,Läntinen Rantakatu 53,20100,Turku,60.44117765,22.246260168865277,https://www.finder.fi/Arkkitehtitoimisto+suunnittelutoimisto/Sigge+Arkkitehdit+Oy/Turku/yhteystiedot/125854
Sigge Arkkitehdit Oy,Perämiehenkatu 12 e,00150,Helsinki,60.1575084,24.9354068,https://www.finder.fi/Arkkitehtitoimisto+suunnittelutoimisto/Sigge+Arkkitehdit+Oy/Helsinki/yhteystiedot/466911
Arkkitehtitoimisto Tähti-Set Oy,Pyhäjärvenkatu 1 A,33200,Tampere,61.4925824,23.7536422,https://www.finder.fi/Arkkitehtitoimisto+suunnittelutoimisto/Arkkitehtitoimisto+T%C3%A4hti-Set+Oy/Tampere/yhteystiedot/116627
Arrak Arkkitehdit Kiiskilä Rautiola Rautiola Oy,Pursimiehenkatu 6 C,00150,Helsinki,63.1085944,21.5957929,https://www.finder.fi/Arkkitehtitoimisto+suunnittelutoimisto/Arrak+Arkkitehdit+Kiiskil%C3%A4+Rautiola+Rautiola+Oy/Helsinki/yhteystiedot/126042
Arkkitehtuuri Oy Lehtinen Miettunen,Viipurintie 4,13200,Hämeenlinna,60.9974603,24.4716102,https://www.finder.fi/Arkkitehtitoimisto+suunnittelutoimisto/Arkkitehtuuri+Oy+Lehtinen+Miettunen/H%C3%A4meenlinna/yhteystiedot/477374
Arkkitehtitoimisto Lindqvist Marjut,Simpukkatie 28,48310,Kotka,61.4987764,21.8237959,https://www.finder.fi/Arkkitehtitoimisto+suunnittelutoimisto/Arkkitehtitoimisto+Lindqvist+Marjut/Kotka/yhteystiedot/744645
Plaana Oy,Tyrnäväntie 12,90400,Oulu,64.9960843,25.4583795,https://www.finder.fi/Insin%C3%B6%C3%B6ritoimisto+suunnittelutoimisto/Plaana+Oy/Oulu/yhteystiedot/232305
Arkkitehtuuritoimisto Sintonen-Rahunen-Karjalainen Lahti,Rauhankatu 17 B,15110,Lahti,60.1716015,24.954984,https://www.finder.fi/Arkkitehtitoimisto+suunnittelutoimisto/Arkkitehtuuritoimisto+Sintonen-Rahunen-Karjalainen+Lahti/Lahti/yhteystiedot/330230
Arkkitehtitoimisto AR-Vastamäki Oy,Satakunnankatu 13 B,33100,Tampere,61.5008634,23.76357028778697,https://www.finder.fi/Arkkitehtitoimisto+suunnittelutoimisto/Arkkitehtitoimisto+AR-Vastam%C3%A4ki+Oy/Tampere/yhteystiedot/116537
Arkkitehtitoimisto Ad.Ce Suunnittelu Oy,Puutarhakatu 49,20100,Turku,60.1730864,24.9486668,https://www.finder.fi/Arkkitehtitoimisto+suunnittelutoimisto/Arkkitehtitoimisto+Ad+Ce+Suunnittelu+Oy/Turku/yhteystiedot/356307
Arkkitehtitoimisto Kekkonen & Vuorento Oy,Metsämutilantie 1,05460,Hyvinkää,60.6058036,24.8620176,https://www.finder.fi/Arkkitehtitoimisto+suunnittelutoimisto/Arkkitehtitoimisto+Kekkonen+%26+Vuorento+Oy/Hyvink%C3%A4%C3%A4/yhteystiedot/949789
Leppänen Arkkitehdit Oy,Klaneettitie 6-8 B,00420,Helsinki,60.2390059,24.8744433,https://www.finder.fi/Arkkitehtitoimisto+suunnittelutoimisto/Lepp%C3%A4nen+Arkkitehdit+Oy/Helsinki/yhteystiedot/330022
Tiina Elina Toivonen Consulting Kommandiittiyhtiö,Pohjoisranta 11,28100,Pori,61.492723100000006,21.798102552987633,https://www.finder.fi/Rakennussuunnittelu/Tiina+Elina+Toivonen+Consulting+Kommandiittiyhti%C3%B6/Pori/yhteystiedot/210622
Arkkitehtitoimisto Vesa Näsi,Kuntalantie 8 B,03850,Pusula,60.4705634,23.9848769,https://www.finder.fi/Arkkitehtitoimisto+suunnittelutoimisto/Arkkitehtitoimisto+Vesa+N%C3%A4si/Pusula/yhteystiedot/213614
Saraco D&M Oy,Annankatu 27,2.,"krs, 00100 Helsinki",60.1676457,24.936119,https://www.finder.fi/Rakennuttajapalvelu/Saraco+D%26M+Oy/Helsinki/yhteystiedot/344442
Rakennus- ja Arkkitehtipalvelu Pertti Ahola Oy,Loukkukatu 22,40630,Jyväskylä,62.2369858,25.684645721135432,https://www.finder.fi/Arkkitehtitoimisto+suunnittelutoimisto/Rakennus-+ja+Arkkitehtipalvelu+Pertti+Ahola+Oy/Jyv%C3%A4skyl%C3%A4/yhteystiedot/2093900
Arkkitehtitoimisto Tilatakomo Oy,Pyhäjärvenkatu 6,33200,Tampere,61.4736597,23.6661959,https://www.finder.fi/Arkkitehtitoimisto+suunnittelutoimisto/Arkkitehtitoimisto+Tilatakomo+Oy/Tampere/yhteystiedot/116592
Insinööritoimisto Eero Kellberg Oy,Mesimarjaviita 7,60150,Seinäjoki,62.7710961,22.8863171,https://www.finder.fi/Insin%C3%B6%C3%B6ritoimisto+suunnittelutoimisto/Insin%C3%B6%C3%B6ritoimisto+Eero+Kellberg+Oy/Sein%C3%A4joki/yhteystiedot/185956
Arkkitehtitoimisto HMV Oy,Töölönkatu 4,00100,Helsinki,60.173496,24.9310652,https://www.finder.fi/Arkkitehtitoimisto+suunnittelutoimisto/Arkkitehtitoimisto+HMV+Oy/Helsinki/yhteystiedot/170171
Arkkitehtitoimisto Jussi Tervaoja Oy,Klyyvari 3 A,90510,Oulu,65.0379692,25.4213209,https://www.finder.fi/Arkkitehtitoimisto+suunnittelutoimisto/Arkkitehtitoimisto+Jussi+Tervaoja+Oy/Oulu/yhteystiedot/125722
Arkkitehtitoimisto Käppi Oy,Pallokentäntie 4,45700,Kuusankoski,60.9060866,26.6220004,https://www.finder.fi/Arkkitehtitoimisto+suunnittelutoimisto/Arkkitehtitoimisto+K%C3%A4ppi+Oy/Kuusankoski/yhteystiedot/142546
Arkkitehtitoimisto Ulla Hovi Oy,Ruukinkatu 11 A,48100,Kotka,60.4533098,22.3018236,https://www.finder.fi/Arkkitehtitoimisto+suunnittelutoimisto/Arkkitehtitoimisto+Ulla+Hovi+Oy/Kotka/yhteystiedot/537562
Arkkitehtuurisuunnittelu P. Pylkkönen-Palm,Puuvillakatu 4,30100,Forssa,59.4523879,24.701062,https://www.finder.fi/Arkkitehtitoimisto+suunnittelutoimisto/Arkkitehtuurisuunnittelu+P+Pylkk%C3%B6nen-Palm/Forssa/yhteystiedot/350672
Arkkitehtuuritoimisto Kari Järvinen,Lohikuja 2,17200,Vääksy,61.8637946,28.83559353272859,https://www.finder.fi/Arkkitehtitoimisto+suunnittelutoimisto/Arkkitehtuuritoimisto+Kari+J%C3%A4rvinen/V%C3%A4%C3%A4ksy/yhteystiedot/500238
Liike Oy Arkkitehtistudio,Malminkatu 28,00100,Helsinki,60.1675605,24.9290514,https://www.finder.fi/Arkkitehtitoimisto+suunnittelutoimisto/Liike+Oy+Arkkitehtistudio/Helsinki/yhteystiedot/962612
Suunnittelumikkonen Ky,Takalontie 810,90910,Kontio,65.1509215,25.6979108,https://www.finder.fi/Arkkitehtitoimisto+suunnittelutoimisto/Suunnittelumikkonen+Ky/Kontio/yhteystiedot/419600
Tilatoive Oy,Kuuselantie 11 b,90800,Oulu,60.7062994,24.8125685,https://www.finder.fi/Arkkitehtitoimisto+suunnittelutoimisto/Tilatoive+Oy/Oulu/yhteystiedot/3156926
arkkitehdit MV oy,Otsolahdentie 7 A,02110,Espoo,60.1777897,24.818955351908308,https://www.finder.fi/Arkkitehtitoimisto+suunnittelutoimisto/arkkitehdit+MV+oy/Espoo/yhteystiedot/125867
Arkera Oy,Ali-Huikkaantie 33 A,33560,Tampere,61.5033907,23.8366467,https://www.finder.fi/Arkkitehtitoimisto+suunnittelutoimisto/Arkera+Oy/Tampere/yhteystiedot/116623
Insinööritoimisto Laaksonen Oy,Perttulankatu 21,05900,Hyvinkää,60.6370904,24.83854575941286,https://www.finder.fi/Insin%C3%B6%C3%B6ritoimisto+suunnittelutoimisto/Insin%C3%B6%C3%B6ritoimisto+Laaksonen+Oy/Hyvink%C3%A4%C3%A4/yhteystiedot/381875
Talopiirtopalvelu Kari Mäntylä Tmi,Kauppakatu 10,43100,Saarijärvi,61.190080800000004,28.770446648969582,https://www.finder.fi/Talonrakennus/Talopiirtopalvelu+Kari+M%C3%A4ntyl%C3%A4+Tmi/Saarij%C3%A4rvi/yhteystiedot/380781
V-S Tekniikkatalo Oy,Maariankatu 4 A,20100,Turku,60.567201,27.1947952,https://www.finder.fi/Arkkitehtitoimisto+suunnittelutoimisto/V-S+Tekniikkatalo+Oy/Turku/yhteystiedot/1603547
Arkkitehdit Davidsson Tarkela Oy,Kasarmikatu 36,00130,Helsinki,60.1651792,24.9476294,https://www.finder.fi/Arkkitehtitoimisto+suunnittelutoimisto/Arkkitehdit+Davidsson+Tarkela+Oy/Helsinki/yhteystiedot/125681
Hila Arkkitehdit Oy,Hämeenkatu 22,20500,Turku,60.4495982,22.2756294,https://www.finder.fi/Arkkitehtitoimisto+suunnittelutoimisto/Hila+Arkkitehdit+Oy/Turku/yhteystiedot/2817070
Arkkitehtitoimisto Yrjö J. Warvas Oy,Kalevankatu 4,08100,Lohja,62.6052841,25.719981444885363,https://www.finder.fi/Arkkitehtitoimisto+suunnittelutoimisto/Arkkitehtitoimisto+Yrj%C3%B6+J+Warvas+Oy/Lohja/yhteystiedot/125961
NAC Arkkitehdit Oy,Vaasanpuistikko 18,65100,Vaasa,63.0949466,21.6178005,https://www.finder.fi/Arkkitehtitoimisto+suunnittelutoimisto/NAC+Arkkitehdit+Oy/Vaasa/yhteystiedot/213250
Arkkitehtitoimisto Ark'Aboa Oy,Nahkurinkatu 8,20100,Turku,60.4548367,22.271980494209835,https://www.finder.fi/Arkkitehtitoimisto+suunnittelutoimisto/Arkkitehtitoimisto+Ark+Aboa+Oy/Turku/yhteystiedot/203234
Arkkitehtitoimisto HKP,Bulevardi 44 ,4.,"krs, 00120 Helsinki",60.161804,24.9313581,https://www.finder.fi/Arkkitehtitoimisto+suunnittelutoimisto/Arkkitehtitoimisto+HKP/Helsinki/yhteystiedot/125718
Arkkitehtitoimisto Planssi Oy,Hakuntie 6,45610,Koria,60.850696150000005,26.605078349914876,https://www.finder.fi/Arkkitehtitoimisto+suunnittelutoimisto/Arkkitehtitoimisto+Planssi+Oy/Koria/yhteystiedot/2478054
Arkkitehtitoimisto A-Konsultit Oy,Ratakatu 19,00120,Helsinki,65.008393,25.4834348,https://www.finder.fi/Arkkitehtitoimisto+suunnittelutoimisto/Arkkitehtitoimisto+A-Konsultit+Oy/Helsinki/yhteystiedot/125652
Oopeaa,Kauppakatu 19 A,60100,Seinäjoki,62.8915795,27.6773627,https://www.finder.fi/Arkkitehtitoimisto+suunnittelutoimisto/Oopeaa/Sein%C3%A4joki/yhteystiedot/861726
P&R Arkkitehdit Oy,Veturikuja 7,01300,Vantaa,60.29806315,25.04434007285181,https://www.finder.fi/Arkkitehtitoimisto+suunnittelutoimisto/P%26R+Arkkitehdit+Oy/Vantaa/yhteystiedot/330023
Insinööritoimisto Tilatek Oy,Ruokojärvenkatu 7,38700,Kankaanpää,61.8010461,22.3957406,https://www.finder.fi/Insin%C3%B6%C3%B6ritoimisto+suunnittelutoimisto/Insin%C3%B6%C3%B6ritoimisto+Tilatek+Oy/Kankaanp%C3%A4%C3%A4/yhteystiedot/140200
Jaakkola Arkkitehdit,Tallbergin puistotie 1,00200,Helsinki,60.1578965,24.8806749,https://www.finder.fi/Arkkitehtitoimisto+suunnittelutoimisto/Jaakkola+Arkkitehdit/Helsinki/yhteystiedot/125703
Arkkitehtimo Oy,Gallen-Kallelankatu 8,28100,Pori,61.4868082,21.7944786,https://www.finder.fi/Arkkitehtitoimisto+suunnittelutoimisto/Arkkitehtimo+Oy/Pori/yhteystiedot/2804535
Insinööritoimisto Oikarainen Oy,Torangintaival 1,93600,Kuusamo,65.9429728,29.2167875,https://www.finder.fi/Insin%C3%B6%C3%B6ritoimisto+suunnittelutoimisto/Insin%C3%B6%C3%B6ritoimisto+Oikarainen+Oy/Kuusamo/yhteystiedot/228304
ARK Vahtera Oy,Pitkämäenkatu 11 A,20250,Turku,60.4588951,22.2353325,https://www.finder.fi/Arkkitehtitoimisto+suunnittelutoimisto/ARK+Vahtera+Oy/Turku/yhteystiedot/125799
Lukkaroinen Arkkitehdit Oy,Kauppurienkatu 12,90100,Oulu,65.0119071,25.4692134,https://www.finder.fi/Arkkitehtitoimisto+suunnittelutoimisto/Lukkaroinen+Arkkitehdit+Oy/Oulu/yhteystiedot/2864663
Jeskanen-Repo-Teränne Arkkitehdit Oy,Pursimiehenkatu 29-31 B,00150,Helsinki,60.1585667,24.9334431,https://www.finder.fi/Arkkitehtitoimisto+suunnittelutoimisto/Jeskanen-Repo-Ter%C3%A4nne+Arkkitehdit+Oy/Helsinki/yhteystiedot/125831
VPL Arkkitehdit Oy,Pursimiehenkatu 29-31 B,00150,Helsinki,60.1585667,24.9334431,https://www.finder.fi/Arkkitehtitoimisto+suunnittelutoimisto/VPL+Arkkitehdit+Oy/Helsinki/yhteystiedot/232280
Arkkitehtitoimisto Lasse Kosunen Oy,Aleksis Kiven katu 11 B,33100,Tampere,60.1956262,24.9365386,https://www.finder.fi/Arkkitehtitoimisto+suunnittelutoimisto/Arkkitehtitoimisto+Lasse+Kosunen+Oy/Tampere/yhteystiedot/116544
Arkkitehtitoimisto Päivi Vuori,Mikkolankuja 30,31700,Urjala as,60.9562395,24.4963507,https://www.finder.fi/Arkkitehtitoimisto+suunnittelutoimisto/Arkkitehtitoimisto+P%C3%A4ivi+Vuori/Urjala+as/yhteystiedot/116923
Arkkitehtitoimisto Virkkunen & Co,Tallberginkatu 9,00180,Helsinki,60.1637707,24.9028851,https://www.finder.fi/Arkkitehtitoimisto+suunnittelutoimisto/Arkkitehtitoimisto+Virkkunen+%26+Co/Helsinki/yhteystiedot/125876
Insinööri- ja arkkitehtitoimisto Oy Palola & Piispanen,Elektroniikkatie 3,90590,Oulu,65.0584849,25.4399524,https://www.finder.fi/Arkkitehtitoimisto+suunnittelutoimisto/Insin%C3%B6%C3%B6ri-+ja+arkkitehtitoimisto+Oy+Palola+%26+Piispanen/Oulu/yhteystiedot/1703310
Polyplan Oy Ab,Raastuvankatu 18 B,65100,Vaasa,63.0957081,21.6126092,https://www.finder.fi/Arkkitehtitoimisto+suunnittelutoimisto/Polyplan+Oy+Ab/Vaasa/yhteystiedot/164327
Arkkitehtitoimisto Arto Mattila Oy,Sepänkatu 9,70100,Kuopio,60.1590987,24.939235,https://www.finder.fi/Arkkitehtitoimisto+suunnittelutoimisto/Arkkitehtitoimisto+Arto+Mattila+Oy/Kuopio/yhteystiedot/3069069
Arkitekttjänst Johan Ångerman,Frilundsvägen 2,65170,Vasa,63.0923616,21.5598722,https://www.finder.fi/Arkkitehtitoimisto+suunnittelutoimisto/Arkitekttj%C3%A4nst+Johan+%C3%85ngerman/Vasa/yhteystiedot/899059
Arkkitehtitoimisto H&M Arkkitehdit,Rautatienkatu 19 A,15110,Lahti,64.9986662,25.4640083,https://www.finder.fi/Arkkitehtitoimisto+suunnittelutoimisto/Arkkitehtitoimisto+H%26M+Arkkitehdit/Lahti/yhteystiedot/352683
Arkkitehtitoimisto Hannu,Kalevalankatu 11 A,32200,Loimaa,62.9004302,27.7126298,https://www.finder.fi/Arkkitehtitoimisto+suunnittelutoimisto/Arkkitehtitoimisto+Hannu/Loimaa/yhteystiedot/872923
Arkkitehtitoimisto Huvila Oy,Sturenkatu 4,00510,Helsinki,60.1955069,24.9591344,https://www.finder.fi/Arkkitehtitoimisto+suunnittelutoimisto/Arkkitehtitoimisto+Huvila+Oy/Helsinki/yhteystiedot/901202
Arkkitehtitoimisto RCo Oy,Hallituskatu 19,13100,Hämeenlinna,62.888072,27.6912615,https://www.finder.fi/Arkkitehtitoimisto+suunnittelutoimisto/Arkkitehtitoimisto+RCo+Oy/H%C3%A4meenlinna/yhteystiedot/125939
Arosuo Arkkitehdit Oy,Itäinen Pitkäkatu 21 A,20700,Turku,60.4439277,22.2758543,https://www.finder.fi/Arkkitehtitoimisto+suunnittelutoimisto/Arosuo+Arkkitehdit+Oy/Turku/yhteystiedot/2768478
Arkkitehdit K H Ky,Paciuksenkuja 1,00270,Helsinki,60.1965356,24.8973914,https://www.finder.fi/Arkkitehtitoimisto+suunnittelutoimisto/Arkkitehdit+K+H+Ky/Helsinki/yhteystiedot/330016
Arkkitehtitoimisto Jorma Teppo Oy,Nummikatu 10,90100,Oulu,65.01038725000001,25.458617436079578,https://www.finder.fi/Arkkitehtitoimisto+suunnittelutoimisto/Arkkitehtitoimisto+Jorma+Teppo+Oy/Oulu/yhteystiedot/125733
Oopeaa,Eteläinen Hesperiankatu 8,00100,Helsinki,60.1770883,24.9268264,https://www.finder.fi/Arkkitehtitoimisto+suunnittelutoimisto/Oopeaa/Helsinki/yhteystiedot/2931354
ARK Takala Oy,Henrikinkatu 9,20500,Turku,60.452864250000005,22.27978735246093,https://www.finder.fi/Arkkitehtitoimisto+suunnittelutoimisto/ARK+Takala+Oy/Turku/yhteystiedot/249250
Arcadia Oy Arkkitehtitoimisto,Niskakatu 16 B,80100,Joensuu,62.6043239,29.754946,https://www.finder.fi/Arkkitehtitoimisto+suunnittelutoimisto/Arcadia+Oy+Arkkitehtitoimisto/Joensuu/yhteystiedot/125437
Arkkitehtitoimisto Amazon,Karjaportintie 27,90140,Oulu,65.0003853,25.498299,https://www.finder.fi/Arkkitehtitoimisto+suunnittelutoimisto/Arkkitehtitoimisto+Amazon/Oulu/yhteystiedot/746075
Arkkitehtitoimisto Sarpaneva Oy Ab,Itälahdenkatu 18 C,00210,Helsinki,60.1521171,24.880521,https://www.finder.fi/Arkkitehtitoimisto+suunnittelutoimisto/Arkkitehtitoimisto+Sarpaneva+Oy+Ab/Helsinki/yhteystiedot/330145
Arkkitehtuuritoimisto Jari Miettunen,Kuussaarentie 7 D,95220,Simoniemi,62.7489361,29.8082593,https://www.finder.fi/Arkkitehtitoimisto+suunnittelutoimisto/Arkkitehtuuritoimisto+Jari+Miettunen/Simoniemi/yhteystiedot/427269
BST-Arkkitehdit Oy,Finlaysoninkatu 5,33210,Tampere,61.5021575,23.7583378,https://www.finder.fi/Arkkitehtitoimisto+suunnittelutoimisto/BST-Arkkitehdit+Oy/Tampere/yhteystiedot/761304
Helin & Co Architects,Urho Kekkosen katu 3 B,00100,Helsinki,60.1688284,24.9333759,https://www.finder.fi/Arkkitehtitoimisto+suunnittelutoimisto/Helin+%26+Co+Architects/Helsinki/yhteystiedot/852719
Insinööritoimisto Kujanpää Samuli Tmi,Auerkatu 5,20900,Turku,44.891458400000005,2.4213082970800848,https://www.finder.fi/Arkkitehtitoimisto+suunnittelutoimisto/Insin%C3%B6%C3%B6ritoimisto+Kujanp%C3%A4%C3%A4+Samuli+Tmi/Turku/yhteystiedot/873290
Suunnittelupiste Oy,Ristonmäenrinne 7,40500,Jyväskylä,62.2213025,25.736526129056237,https://www.finder.fi/Arkkitehtitoimisto+suunnittelutoimisto/Suunnittelupiste+Oy/Jyv%C3%A4skyl%C3%A4/yhteystiedot/177480
Vauhtiviiva Oy,Kirkkokatu 20 A 20,90100,Oulu,64.226007,27.7295668,https://www.finder.fi/Arkkitehtitoimisto+suunnittelutoimisto/Vauhtiviiva+Oy/Oulu/yhteystiedot/183861
Arkkitehdit Tommila Oy,Kuusiniementie 5,00340,Helsinki,60.1880786,24.8681008,https://www.finder.fi/Arkkitehtitoimisto+suunnittelutoimisto/Arkkitehdit+Tommila+Oy/Helsinki/yhteystiedot/125627
Arkkitehdit Kontukoski Oy,Finlaysoninkuja 9,33210,Tampere,61.5015276,23.7603771,https://www.finder.fi/Arkkitehtitoimisto+suunnittelutoimisto/Arkkitehdit+Kontukoski+Oy/Tampere/yhteystiedot/2091928
Gravicon Oy,Sturenkatu 4,00510,Helsinki,60.1955069,24.9591344,https://www.finder.fi/Arkkitehtitoimisto+suunnittelutoimisto/Gravicon+Oy/Helsinki/yhteystiedot/790974
Arkki J. Murtosaari Ky,Lapamutka 18,41120,Puuppola,62.3495454,25.6803521,https://www.finder.fi/Arkkitehtitoimisto+suunnittelutoimisto/Arkki+J+Murtosaari+Ky/Puuppola/yhteystiedot/450308
Korjausrakentaminen Vanhoo Ossoo / Maria Luostarinen,Asikkalantie 21,58900,Rantasalmi,61.1790791,25.5240383,https://www.finder.fi/Arkkitehtitoimisto+suunnittelutoimisto/Korjausrakentaminen+Vanhoo+Ossoo+Maria+Luostarinen/Rantasalmi/yhteystiedot/1230919
Arkkitehtitoimisto Kareoja-Herranen,Pursimiehenkatu 26 C,00150,Helsinki,60.1607481,24.9417164,https://www.finder.fi/Arkkitehtitoimisto+suunnittelutoimisto/Arkkitehtitoimisto+Kareoja-Herranen/Helsinki/yhteystiedot/125758
Arkkitehtitoimisto V.Sairanen,Elontie 55 b,00660,Helsinki,60.2459071,24.9447528,https://www.finder.fi/Arkkitehtitoimisto+suunnittelutoimisto/Arkkitehtitoimisto+V+Sairanen/Helsinki/yhteystiedot/330143
Arkkitehtuuritoimisto Ava,Holstilantie 1 a,71570,Syvänniemi,62.8452661,27.3117756,https://www.finder.fi/Arkkitehtitoimisto+suunnittelutoimisto/Arkkitehtuuritoimisto+Ava/Syv%C3%A4nniemi/yhteystiedot/500235
Rakennusvalvonta ja Rakennussuunnittelu Tero Kontiainen,Yhdystie 4,66400,Laihia,61.703360450000005,27.205748397613185,https://www.finder.fi/Arkkitehtitoimisto+suunnittelutoimisto/Rakennusvalvonta+ja+Rakennussuunnittelu+Tero+Kontiainen/Laihia/yhteystiedot/2646756
"martens arkkitehdit, ateljé",Tanotorventie 19 A,00420,Helsinki,60.2414393,24.8924439,https://www.finder.fi/Arkkitehtitoimisto+suunnittelutoimisto/martens+arkkitehdit+atelj%C3%A9/Helsinki/yhteystiedot/330034
Arkkitehtuuritoimisto Juha Pekka Mikkonen,Tarkka-ampujankatu 14,90120,Oulu,65.0036383,25.45438242234124,https://www.finder.fi/Arkkitehtitoimisto+suunnittelutoimisto/Arkkitehtuuritoimisto+Juha+Pekka+Mikkonen/Oulu/yhteystiedot/477375
Laaja Arkitekter Ab,Runebergsgatan 8,68600,Jakobstad,60.170558650000004,24.925231605033343,https://www.finder.fi/Arkkitehtitoimisto+suunnittelutoimisto/Laaja+Arkitekter+Ab/Jakobstad/yhteystiedot/2041088
Rakennussuunnittelu Markku Syväluoma Oy,Joentaustantie 810,64720,Perälä,60.3927594,24.7875539,https://www.finder.fi/Rakennussuunnittelu/Rakennussuunnittelu+Markku+Syv%C3%A4luoma+Oy/Per%C3%A4l%C3%A4/yhteystiedot/2236860
Suunnittelu Penark Oy,Kuninkaankatu 39 B,33200,Tampere,62.8920504,27.6850985,https://www.finder.fi/Rakennesuunnittelu/Suunnittelu+Penark+Oy/Tampere/yhteystiedot/116560
Hellevi Saarinen,Ristonmäenrinne 7,40500,Jyväskylä,62.2213025,25.736526129056237,https://www.finder.fi/yhteystieto/257522368_177480/Hellevi+Saarinen/Jyv%C3%A4skyl%C3%A4
Ismo Blomqvist,Ali-Huikkaantie 33 A,33560,Tampere,61.5033907,23.8366467,https://www.finder.fi/yhteystieto/257651616_116623/Ismo+Blomqvist/Tampere
Paula Markkula,Puutarhakatu 49,20100,Turku,60.1730864,24.9486668,https://www.finder.fi/yhteystieto/257516344_356307/Paula+Markkula/Turku
 Kari Harju,Satakunnankatu 33 b,33210,Tampere,61.5010434,23.7632561,https://www.finder.fi/yhteystieto/257538163_366330/Kari+Harju/Tampere
Anneli Hellsten,Rautatienkatu 19 A,15110,Lahti,64.9986662,25.4640083,https://www.finder.fi/yhteystieto/516621853_352683/Anneli+Hellsten/Lahti
Anssi Lassila,Hakalankatu 10 B,60100,Seinäjoki,62.7850742,22.8516593,https://www.finder.fi/yhteystieto/524956072_861726/Anssi+Lassila/Sein%C3%A4joki
Ari Heikkinen,Kintastie 4,87700,Kajaani,65.0257632,25.5297547,https://www.finder.fi/yhteystieto/2988747886_3149733/Ari+Heikkinen/Kajaani
Arto Mattila,Kidekatu 15,70840,Kuopio,61.0069629,25.7945067,https://www.finder.fi/yhteystieto/919135698_3069069/Arto+Mattila/Kuopio
Barbro Holmberg,Hämeentie 155 C,00560,Helsinki,60.1980088,24.9619986,https://www.finder.fi/yhteystieto/257668626_233620/Barbro+Holmberg/Helsinki
Hannu Kiiskilä,Pursimiehenkatu 6 C,00150,Helsinki,63.1085944,21.5957929,https://www.finder.fi/yhteystieto/257795014_126042/Hannu+Kiiskil%C3%A4/Helsinki
Heidi Mäkeläinen,Paciuksenkuja 1,00270,Helsinki,60.1965356,24.8973914,https://www.finder.fi/yhteystieto/873415533_330016/Heidi+M%C3%A4kel%C3%A4inen/Helsinki
Hilkka Maija Antila,Vaasanpuistikko 18,65100,Vaasa,63.0949466,21.6178005,https://www.finder.fi/yhteystieto/257644304_213250/Hilkka+Maija+Antila/Vaasa
Jari Hintsala,Leirintäalueentie 3,97700,Ranua,60.5822395,24.0718901,https://www.finder.fi/yhteystieto/438880063_394873/Jari+Hintsala/Ranua
Jarmo Järventausta,Torikatu 1,38200,Sastamala,40.881615249999996,29.36895819846194,https://www.finder.fi/yhteystieto/257669519_895400/Jarmo+J%C3%A4rventausta/Sastamala
Johan Ångerman,Frilundintie 2,65170,Vaasa,63.0923616,21.5598722,https://www.finder.fi/yhteystieto/371480078_899059/Johan+%C3%85ngerman/Vaasa
Juha Heinämäki,Virtaintie 17,34800,Virrat,60.1925301,24.9566247,https://www.finder.fi/yhteystieto/2426239648_1665661/Juha+Hein%C3%A4m%C3%A4ki/Virrat
Juhani Aalto,Iso Kylätie 43,04130,Sipoo,60.3735053,25.2660625,https://www.finder.fi/yhteystieto/667819044_3046970/Juhani+Aalto/Sipoo
Jukka Laamanen,Puustellinpolku 12,00410,Helsinki,60.2452849,24.860961464850973,https://www.finder.fi/yhteystieto/328389414_307235/Jukka+Laamanen/Helsinki
Jyrki Iso-Aho,Ratakatu 19,00120,Helsinki,65.008393,25.4834348,https://www.finder.fi/yhteystieto/507750463_125652/Jyrki+Iso-Aho/Helsinki
Kari Leppänen,Klaneettitie 6-8 B,00420,Helsinki,60.2390059,24.8744433,https://www.finder.fi/yhteystieto/518789252_330022/Kari+Lepp%C3%A4nen/Helsinki
Kari Tuominen,Viipurintie 45,15150,Lahti,60.975027499999996,25.695968264622415,https://www.finder.fi/yhteystieto/257592481_125983/Kari+Tuominen/Lahti
Katja Maununaho,Töölöntorinkatu 2 B,00260,Helsinki,60.1780205,24.924916,https://www.finder.fi/yhteystieto/452770236_901202/Katja+Maununaho/Helsinki
Kirsti Sintonen,Rauhankatu 17 B,15110,Lahti,60.1716015,24.954984,https://www.finder.fi/yhteystieto/257724003_330230/Kirsti+Sintonen/Lahti
Marjo Kekkonen,Metsämutilantie 1,05460,Hyvinkää,60.6058036,24.8620176,https://www.finder.fi/yhteystieto/257788433_949789/Marjo+Kekkonen/Hyvink%C3%A4%C3%A4
Marko Aitio,Satakunnankatu 13 B,33100,Tampere,61.5008634,23.76357028778697,https://www.finder.fi/yhteystieto/1265967165_116537/Marko+Aitio/Tampere
Mikko Lukkaroinen,Kauppurienkatu 12,90100,Oulu,65.0119071,25.4692134,https://www.finder.fi/yhteystieto/467680203_2864663/Mikko+Lukkaroinen/Oulu
Mikko Suvisto,Bulevardi 44 ,4.,"krs, 00120 Helsinki",60.161804,24.9313581,https://www.finder.fi/yhteystieto/257719658_125718/Mikko+Suvisto/Helsinki
Pekka Mäki,Läntinen Rantakatu 53,20100,Turku,60.44117765,22.246260168865277,https://www.finder.fi/yhteystieto/1748822764_125854/Pekka+M%C3%A4ki/Turku
Päivi Kasurinen,Hakuntie 6,45610,Koria,60.850696150000005,26.605078349914876,https://www.finder.fi/yhteystieto/636810800_2478054/P%C3%A4ivi+Kasurinen/Koria
Päivi Vuori,Mikkolankuja 30,31700,Urjala as,60.9562395,24.4963507,https://www.finder.fi/yhteystieto/701202471_116923/P%C3%A4ivi+Vuori/Urjala+as
Rauno Lehtinen,Perämiehenkatu 12 e,00150,Helsinki,60.1575084,24.9354068,https://www.finder.fi/yhteystieto/1748822797_466911/Rauno+Lehtinen/Helsinki
Roger Wingren VD,Villavägen 8,68580,Larsmo,58.60868,11.4741399,https://www.finder.fi/yhteystieto/257617711_403874/Roger+Wingren+VD/Larsmo
Roland Björkqvist,Raastuvankatu 18 B,65100,Vaasa,63.0957081,21.6126092,https://www.finder.fi/yhteystieto/2459644370_164327/Roland+Bj%C3%B6rkqvist/Vaasa
Sakari Miettunen,Viipurintie 4,13200,Hämeenlinna,60.9974603,24.4716102,https://www.finder.fi/yhteystieto/257511539_477374/Sakari+Miettunen/H%C3%A4meenlinna
Sauli Lind,Possijärvenkatu 1,33400,Tampere,61.517688,23.6632068,https://www.finder.fi/yhteystieto/257544749_116620/Sauli+Lind/Tampere
Taina Anttila,Raatihuoneenkatu 19B,5.,"kerros, 13100 Hämeenlinna",60.9959714,24.4642564,https://www.finder.fi/yhteystieto/747058806_351431/Taina+Anttila/H%C3%A4meenlinna
Teppo Pietarinen,Veturikuja 7,01300,Vantaa,60.29806315,25.04434007285181,https://www.finder.fi/yhteystieto/257767582_330023/Teppo+Pietarinen/Vantaa
Timo Hyvärinen,Vattuniemenkatu 15 A,00210,Helsinki,60.1519235,24.8855858,https://www.finder.fi/yhteystieto/257500533_187172/Timo+Hyv%C3%A4rinen/Helsinki
Timo Lähteenmäki,Gallen-Kallelankatu 8,28100,Pori,61.4868082,21.7944786,https://www.finder.fi/yhteystieto/2660154856_2804535/Timo+L%C3%A4hteenm%C3%A4ki/Pori
Vesa Arosuo,Itäinen Pitkäkatu 21 A,20700,Turku,60.4439277,22.2758543,https://www.finder.fi/yhteystieto/1221725441_2768478/Vesa+Arosuo/Turku
 Markku Mäki-Opas,Satakunnankatu 33 b,33210,Tampere,61.5010434,23.7632561,https://www.finder.fi/yhteystieto/257538176_366330/Markku+M%C3%A4ki-Opas/Tampere
Antti Konola,Raatihuoneenkatu 19B,5.,"kerros, 13100 Hämeenlinna",60.9959714,24.4642564,https://www.finder.fi/yhteystieto/747058844_351431/Antti+Konola/H%C3%A4meenlinna
Ari Pusa,Läntinen Rantakatu 53,20100,Turku,60.44117765,22.246260168865277,https://www.finder.fi/yhteystieto/1748822775_125854/Ari+Pusa/Turku
Arja Hyvärinen,Hämeentie 155 C,00560,Helsinki,60.1980088,24.9619986,https://www.finder.fi/yhteystieto/1476265340_233620/Arja+Hyv%C3%A4rinen/Helsinki
Arto Peltokangas,Possijärvenkatu 1,33400,Tampere,61.517688,23.6632068,https://www.finder.fi/yhteystieto/257544755_116620/Arto+Peltokangas/Tampere
Esko Rautiola,Pursimiehenkatu 6 C,00150,Helsinki,63.1085944,21.5957929,https://www.finder.fi/yhteystieto/257795021_126042/Esko+Rautiola/Helsinki
Gustav Simons arkitekt SAFA,Villavägen 8,68580,Larsmo,58.60868,11.4741399,https://www.finder.fi/yhteystieto/257617717_403874/Gustav+Simons+arkitekt+SAFA/Larsmo
Ismo Rellman,Satakunnankatu 13 B,33100,Tampere,61.5008634,23.76357028778697,https://www.finder.fi/yhteystieto/1265967183_116537/Ismo+Rellman/Tampere
Juhani Puukka,Torikatu 1,38200,Sastamala,40.881615249999996,29.36895819846194,https://www.finder.fi/yhteystieto/433226130_895400/Juhani+Puukka/Sastamala
Lasse Lehtinen,Viipurintie 4,13200,Hämeenlinna,60.9974603,24.4716102,https://www.finder.fi/yhteystieto/257511545_477374/Lasse+Lehtinen/H%C3%A4meenlinna
Patrick Holmström,Itäinen Pitkäkatu 21 A,20700,Turku,60.4439277,22.2758543,https://www.finder.fi/yhteystieto/1221725455_2768478/Patrick+Holmstr%C3%B6m/Turku
Pekka Vapaavuori,Itäinen Rantakatu 64,20810,Turku,60.4395964,22.246827,https://www.finder.fi/yhteystieto/257515210_125617/Pekka+Vapaavuori/Turku
Riikka Ahonen,Vattuniemenkatu 15 A,00210,Helsinki,60.1519235,24.8855858,https://www.finder.fi/yhteystieto/257500539_187172/Riikka+Ahonen/Helsinki
Risto Nissilä,Raastuvankatu 18 B,65100,Vaasa,63.0957081,21.6126092,https://www.finder.fi/yhteystieto/2459644382_164327/Risto+Nissil%C3%A4/Vaasa
Seppo Markku,Rautatienkatu 19 A,15110,Lahti,64.9986662,25.4640083,https://www.finder.fi/yhteystieto/516621987_352683/Seppo+Markku/Lahti
Sirpa Kekkonen,Metsämutilantie 1,05460,Hyvinkää,60.6058036,24.8620176,https://www.finder.fi/yhteystieto/257788439_949789/Sirpa+Kekkonen/Hyvink%C3%A4%C3%A4
Taina Karjalainen,Rauhankatu 17 B,15110,Lahti,60.1716015,24.954984,https://www.finder.fi/yhteystieto/257724009_330230/Taina+Karjalainen/Lahti
Teemu Saari,Virtaintie 17,34800,Virrat,60.1925301,24.9566247,https://www.finder.fi/yhteystieto/2426239661_1665661/Teemu+Saari/Virrat
Tiina Heikkilä,Vaasanpuistikko 18 12,65100,Vaasa,60.18797985,24.96074215420701,https://www.finder.fi/yhteystieto/2375659223_213250/Tiina+Heikkil%C3%A4/Vaasa
"Dang Phi Thanh, arkitekt SAFA",Villavägen 8,68580,Larsmo,58.60868,11.4741399,https://www.finder.fi/yhteystieto/257617723_403874/Dang+Phi+Thanh+arkitekt+SAFA/Larsmo
Harri Verälä,Itäinen Pitkäkatu 21 A,20700,Turku,60.4439277,22.2758543,https://www.finder.fi/yhteystieto/1221725469_2768478/Harri+Ver%C3%A4l%C3%A4/Turku
Heidi Kulla,Raastuvankatu 18 B,65100,Vaasa,63.0957081,21.6126092,https://www.finder.fi/yhteystieto/2459644394_164327/Heidi+Kulla/Vaasa
Jarmo Maunula,Hämeentie 155 C,00560,Helsinki,60.1980088,24.9619986,https://www.finder.fi/yhteystieto/1476265353_233620/Jarmo+Maunula/Helsinki
Juha Kuokkanen,Läntinen Rantakatu 53,20100,Turku,60.44117765,22.246260168865277,https://www.finder.fi/yhteystieto/1748822786_125854/Juha+Kuokkanen/Turku
Juha Mikkola,Raatihuoneenkatu 19B,5.,"kerros, 13100 Hämeenlinna",60.9959714,24.4642564,https://www.finder.fi/yhteystieto/747058858_351431/Juha+Mikkola/H%C3%A4meenlinna
Kai Heimala,Metsämutilantie 1,05460,Hyvinkää,60.6058036,24.8620176,https://www.finder.fi/yhteystieto/257788445_949789/Kai+Heimala/Hyvink%C3%A4%C3%A4
Matias Topi,Possijärvenkatu 1,33400,Tampere,61.517688,23.6632068,https://www.finder.fi/yhteystieto/1185034587_116620/Matias+Topi/Tampere
Matti Rautiola,Pursimiehenkatu 6 C,00150,Helsinki,63.1085944,21.5957929,https://www.finder.fi/yhteystieto/3031793054_126042/Matti+Rautiola/Helsinki
Sami Heinämäki,Virtaintie 17,34800,Virrat,60.1925301,24.9566247,https://www.finder.fi/yhteystieto/2426239674_1665661/Sami+Hein%C3%A4m%C3%A4ki/Virrat
Sari Tuovinen,Satakunnankatu 13 B,33100,Tampere,61.5008634,23.76357028778697,https://www.finder.fi/yhteystieto/1265967198_116537/Sari+Tuovinen/Tampere
Tiitta Itkonen,Kauppiaskatu 5 A,20100,Turku,60.450331,22.270436,https://www.finder.fi/yhteystieto/257536586_125767/Tiitta+Itkonen/Turku
Krista Järvinen,Possijärvenkatu 1,33400,Tampere,61.517688,23.6632068,https://www.finder.fi/yhteystieto/1185034598_116620/Krista+J%C3%A4rvinen/Tampere
Markku Taskinen,Hämeentie 155 C,00560,Helsinki,60.1980088,24.9619986,https://www.finder.fi/yhteystieto/1476265366_233620/Markku+Taskinen/Helsinki
Eevi Peltokangas,Possijärvenkatu 1,33400,Tampere,61.517688,23.6632068,https://www.finder.fi/yhteystieto/1185034609_116620/Eevi+Peltokangas/Tampere
Jukka Sallinen,Hämeentie 155 C,00560,Helsinki,60.1980088,24.9619986,https://www.finder.fi/yhteystieto/1476265379_233620/Jukka+Sallinen/Helsinki
Winni Ekelund,Hämeentie 155 C,00560,Helsinki,60.1980088,24.9619986,https://www.finder.fi/yhteystieto/1476265392_233620/Winni+Ekelund/Helsinki
Hannu Tenho,Kauppiaskatu 5 A,20100,Turku,60.450331,22.270436,https://www.finder.fi/yhteystieto/1888661525_125767/Hannu+Tenho/Turku
Milja Nuorkivi,Hämeentie 155 C,00560,Helsinki,60.1980088,24.9619986,https://www.finder.fi/yhteystieto/1476265405_233620/Milja+Nuorkivi/Helsinki
Leena Tuovinen,Hämeentie 155 C,00560,Helsinki,60.1980088,24.9619986,https://www.finder.fi/yhteystieto/1476265418_233620/Leena+Tuovinen/Helsinki
Hanna Staaf,Hämeentie 155 C,00560,Helsinki,60.1980088,24.9619986,https://www.finder.fi/yhteystieto/1476265431_233620/Hanna+Staaf/Helsinki
A. K. E. Studio Oy Arkkitehtuuritoimisto,Kilpijärventie 140,04740,Sälinkää,61.4709112,27.2290081,https://www.finder.fi/Arkkitehtitoimisto+suunnittelutoimisto/A+K+E+Studio+Oy+Arkkitehtuuritoimisto/S%C3%A4link%C3%A4%C3%A4/yhteystiedot/2686746
ARC-VIVA Arkkitehtitoimisto,Sepänkuja 8,86600,Haapavesi,60.4788467,22.200507878761066,https://www.finder.fi/Arkkitehtitoimisto+suunnittelutoimisto/ARC-VIVA+Arkkitehtitoimisto/Haapavesi/yhteystiedot/430562
ARKdot Oy,Merikatu 1,26200,Rauma,45.343265900000006,-75.72705829365103,https://www.finder.fi/Arkkitehtitoimisto+suunnittelutoimisto/ARKdot+Oy/Rauma/yhteystiedot/3211383
AW2-Arkkitehdit,Köydenpunojankatu 2 F,00180,Helsinki,60.4541864,22.244873,https://www.finder.fi/Arkkitehtitoimisto+suunnittelutoimisto/AW2-Arkkitehdit/Helsinki/yhteystiedot/790745
Arkadi Arkkitehdit,Voudintie 4,90400,Oulu,60.219365100000005,24.964628964847037,https://www.finder.fi/Arkkitehtitoimisto+suunnittelutoimisto/Arkadi+Arkkitehdit/Oulu/yhteystiedot/430009
Arkion Oy,Pyynikintori 3,33230,Tampere,61.4972955,23.7406838,https://www.finder.fi/Arkkitehtitoimisto+suunnittelutoimisto/Arkion+Oy/Tampere/yhteystiedot/116657
Arkitek Oy Ab,Viasvägen 97,66140,Övermalax,56.9129006,12.4863619,https://www.finder.fi/Arkkitehtitoimisto+suunnittelutoimisto/Arkitek+Oy+Ab/%C3%96vermalax/yhteystiedot/3108852
Arkkitehdit D4 Oy,Otsonkallio 2,02110,Espoo,60.1795519,24.818930901457122,https://www.finder.fi/Arkkitehtitoimisto+suunnittelutoimisto/Arkkitehdit+D4+Oy/Espoo/yhteystiedot/125618
Arkkitehdit Rintamäki Viljanen+J Oy,Rantalinna Rantakatu 65100,65100,Vaasa,63.092224200000004,21.605530337766105,https://www.finder.fi/Arkkitehtitoimisto+suunnittelutoimisto/Arkkitehdit+Rintam%C3%A4ki+Viljanen+J+Oy/Vaasa/yhteystiedot/396530
Arkkitehdit Rudanko + Kankkunen Oy,Köydenpunojankatu 2 a D,00180,Helsinki,60.4541864,22.244873,https://www.finder.fi/Arkkitehtitoimisto+suunnittelutoimisto/Arkkitehdit+Rudanko+Kankkunen+Oy/Helsinki/yhteystiedot/2360730
Arkkitehdit Soini & Horto Oy,Merimiehenkatu 36 D,00150,Helsinki,60.1591954,24.9328179,https://www.finder.fi/Arkkitehtitoimisto+suunnittelutoimisto/Arkkitehdit+Soini+%26+Horto+Oy/Helsinki/yhteystiedot/1365311
Arkkitehtipalvelu Maija Outinen Ky,Vuoritie 13,04400,Järvenpää,60.16322635,24.65327140624025,https://www.finder.fi/Arkkitehtitoimisto+suunnittelutoimisto/Arkkitehtipalvelu+Maija+Outinen+Ky/J%C3%A4rvenp%C3%A4%C3%A4/yhteystiedot/1230216
Arkkitehtistudio H,Ruolankatu 18,15150,Lahti,60.9765433,25.688212998785673,https://www.finder.fi/Arkkitehtitoimisto+suunnittelutoimisto/Arkkitehtistudio+H/Lahti/yhteystiedot/3120765
Arkkitehtitoimisto Helander-Leiviskä,Ratakatu 19,00120,Helsinki,65.008393,25.4834348,https://www.finder.fi/Arkkitehtitoimisto+suunnittelutoimisto/Arkkitehtitoimisto+Helander-Leivisk%C3%A4/Helsinki/yhteystiedot/249173
Arkkitehtitoimisto Kooska,Kaiturinkatu 8,33820,Tampere,61.4710825,23.8209522,https://www.finder.fi/Arkkitehtitoimisto+suunnittelutoimisto/Arkkitehtitoimisto+Kooska/Tampere/yhteystiedot/2925725
Arkkitehtitoimisto Lehto Peltonen Valkama Oy,Lastenkodinkuja 2,00180,Helsinki,60.166142,24.9250083,https://www.finder.fi/Arkkitehtitoimisto+suunnittelutoimisto/Arkkitehtitoimisto+Lehto+Peltonen+Valkama+Oy/Helsinki/yhteystiedot/125771
Arkkitehtitoimisto Majamaa Oy,Hämeenkatu 25 B,33200,Tampere,60.4509463,22.279224,https://www.finder.fi/Arkkitehtitoimisto+suunnittelutoimisto/Arkkitehtitoimisto+Majamaa+Oy/Tampere/yhteystiedot/116543
Arkkitehtitoimisto Petäjä Oy,Luoteisväylä 23 C,00200,Helsinki,60.164407,24.8620792,https://www.finder.fi/Arkkitehtitoimisto+suunnittelutoimisto/Arkkitehtitoimisto+Pet%C3%A4j%C3%A4+Oy/Helsinki/yhteystiedot/125829
Arkkitehtitoimisto Planko,Torstintie 5,14500,Iittala,61.0882189,24.1547018,https://www.finder.fi/Arkkitehtitoimisto+suunnittelutoimisto/Arkkitehtitoimisto+Planko/Iittala/yhteystiedot/1820143
Arkkitehtitoimisto Ranki Teuvo,Kalloistenkatu 6,20540,Turku,60.4663034,22.3099676,https://www.finder.fi/Arkkitehtitoimisto+suunnittelutoimisto/Arkkitehtitoimisto+Ranki+Teuvo/Turku/yhteystiedot/356475
Arkkitehtitoimisto Skoot Oy,Kaivokatu 37,06100,Porvoo,60.1705002,24.9415199,https://www.finder.fi/Arkkitehtitoimisto+suunnittelutoimisto/Arkkitehtitoimisto+Skoot+Oy/Porvoo/yhteystiedot/3258022
Arkkitehtitoimisto Suunnittelu Kärki Oy,Vallantie 208,79810,Karvionkanava,62.4980581,28.3879163,https://www.finder.fi/Arkkitehtitoimisto+suunnittelutoimisto/Arkkitehtitoimisto+Suunnittelu+K%C3%A4rki+Oy/Karvionkanava/yhteystiedot/924853
Arkkitehtuuri- ja Sis.tsto Tilaidea,Hallituskatu 10,95400,Tornio,65.0136806,25.4711843,https://www.finder.fi/Arkkitehtitoimisto+suunnittelutoimisto/Arkkitehtuuri-+ja+Sis+tsto+Tilaidea/Tornio/yhteystiedot/427268
Arkkitehtuuritoimisto Pekka Hornamo Ky,Kirkkotori 4,06100,Porvoo,60.397644,25.6581094,https://www.finder.fi/Arkkitehtitoimisto+suunnittelutoimisto/Arkkitehtuuritoimisto+Pekka+Hornamo+Ky/Porvoo/yhteystiedot/125936
Avario Oy,Torikatu 19,90100,Oulu,62.59924,29.7614237,https://www.finder.fi/Arkkitehtitoimisto+suunnittelutoimisto/Avario+Oy/Oulu/yhteystiedot/2470590
Ekidea Oy,Räätälinkuja 4 B,04300,Tuusula,60.4060786,25.0031201,https://www.finder.fi/Arkkitehtitoimisto+suunnittelutoimisto/Ekidea+Oy/Tuusula/yhteystiedot/131127
Flow architects Oy,Tehtaankatu 32 E,00150,Helsinki,60.1579382,24.9388706,https://www.finder.fi/Arkkitehtitoimisto+suunnittelutoimisto/Flow+architects+Oy/Helsinki/yhteystiedot/3146498
HIMLA Arkkitehdit Oy,Hämeenkatu 16,33200,Tampere,-2.44021145,32.969393554880924,https://www.finder.fi/Arkkitehtitoimisto+suunnittelutoimisto/HIMLA+Arkkitehdit+Oy/Tampere/yhteystiedot/3098041
"Honka, Uudenmaankatu 8, 20500 Turku",Tommilankatu 21,20300,Turku,60.466483,22.2481422,https://www.finder.fi/Arkkitehtitoimisto+suunnittelutoimisto/Honka+Uudenmaankatu+8+20500+Turku/Turku/yhteystiedot/872197
Ingenjörsbyrå Mathias Smeds Ab Oy Insinööritoimisto,Asemakatu 48,65100,Vaasa,60.453930150000005,22.252977811200655,https://www.finder.fi/Arkkitehtitoimisto+suunnittelutoimisto/Ingenj%C3%B6rsbyr%C3%A5+Mathias+Smeds+Ab+Oy+Insin%C3%B6%C3%B6ritoimisto/Vaasa/yhteystiedot/203291
Insinööritoimisto AIB,Pihatörmä 1 D,02240,Espoo,60.1648073,24.7314154,https://www.finder.fi/Arkkitehtitoimisto+suunnittelutoimisto/Insin%C3%B6%C3%B6ritoimisto+AIB/Espoo/yhteystiedot/934320
KOHU Studio,Sorolankuja 5 A,00420,Helsinki,60.2529753,24.8742296,https://www.finder.fi/Arkkitehtitoimisto+suunnittelutoimisto/KOHU+Studio/Helsinki/yhteystiedot/3553215
Koivuniemi Juha Tmi Rakennusarkkitehtitoimisto,Helttakatu 4,37130,Nokia,61.4871577,23.4791343,https://www.finder.fi/Rakennusliike/Koivuniemi+Juha+Tmi+Rakennusarkkitehtitoimisto/Nokia/yhteystiedot/367917
Kolu Arkkitehdit Oy,Malmin lentoasema 1,00700,Helsinki,60.2476225,25.0461416,https://www.finder.fi/Arkkitehtitoimisto+suunnittelutoimisto/Kolu+Arkkitehdit+Oy/Helsinki/yhteystiedot/3138670
L Arkkitehdit Oy,Kalevankatu 6,00100,Helsinki,60.1674861,24.9388372,https://www.finder.fi/Arkkitehtitoimisto+suunnittelutoimisto/L+Arkkitehdit+Oy/Helsinki/yhteystiedot/330109
PLM Solution Design Oy,Matintie 4,21250,Masku,60.3885754,25.8297934,https://www.finder.fi/Arkkitehtitoimisto+suunnittelutoimisto/PLM+Solution+Design+Oy/Masku/yhteystiedot/925047
Partanen & Lamusuo Oy,Melankatu 30,70500,Kuopio,62.9020249,27.7081287,https://www.finder.fi/Arkkitehtitoimisto+suunnittelutoimisto/Partanen+%26+Lamusuo+Oy/Kuopio/yhteystiedot/2097629
Pihaus Oy,Hämeenkatu 10,11100,Riihimäki,60.4514403,22.2815241,https://www.finder.fi/Arkkitehtitoimisto+suunnittelutoimisto/Pihaus+Oy/Riihim%C3%A4ki/yhteystiedot/3280204
RA-Studio Raimo Ahonen,Kivikuja 5,90140,Oulu,62.266161100000005,25.883144168861165,https://www.finder.fi/Arkkitehtitoimisto+suunnittelutoimisto/RA-Studio+Raimo+Ahonen/Oulu/yhteystiedot/444005
Rakennus ja saneeraus Puvera,Riistapolku 5,57230,Savonlinna,61.66590255,27.201102202467126,https://www.finder.fi/Korjausrakentaminen/Rakennus+ja+saneeraus+Puvera/Savonlinna/yhteystiedot/869068
Rakennussuunnittelu Rahkala,Kärrinkaari 10 A,25360,Pertteli,60.4579028,23.2367302,https://www.finder.fi/Arkkitehtitoimisto+suunnittelutoimisto/Rakennussuunnittelu+Rahkala/Pertteli/yhteystiedot/3048628
Rakennussuunnittelu ja -palvelu J. Piikkilä,Vesitornintie 111,60800,Ilmajoki,63.3625917,27.7512383,https://www.finder.fi/Arkkitehtitoimisto+suunnittelutoimisto/Rakennussuunnittelu+ja+-palvelu+J+Piikkil%C3%A4/Ilmajoki/yhteystiedot/3022692
Reveal Finland,Tekijäntie 4,60100,Seinäjoki,61.9137959,25.1426634,https://www.finder.fi/Arkkitehtitoimisto+suunnittelutoimisto/Reveal+Finland/Sein%C3%A4joki/yhteystiedot/3260951
Saatsi Arkkitehdit Oy,Bysmedsintie 56,06500,Porvoo,60.4220289,25.5843326,https://www.finder.fi/Arkkitehtitoimisto+suunnittelutoimisto/Saatsi+Arkkitehdit+Oy/Porvoo/yhteystiedot/125687
Talosuunnittelu P. Viitasalo,Parkanontie 58,39700,Parkano,61.5960578,21.8643406,https://www.finder.fi/Rakennussuunnittelu/Talosuunnittelu+P+Viitasalo/Parkano/yhteystiedot/2094690
Tengbom Oy,Salomonkatu 17 A,00100,Helsinki,60.1683627,24.9288943,https://www.finder.fi/Arkkitehtitoimisto+suunnittelutoimisto/Tengbom+Oy/Helsinki/yhteystiedot/1182817
Arkkitehtiruutu Oy Lahti,Askonkatu 9 B,15100,Lahti,61.4769887,23.8734753,https://www.finder.fi/Arkkitehtitoimisto+suunnittelutoimisto/Arkkitehtiruutu+Oy+Lahti/Lahti/yhteystiedot/1096171
Arkkitehtisuunnittelu Niskanen,Kansankatu 53,90100,Oulu,65.0060409,25.47083,https://www.finder.fi/Arkkitehtitoimisto+suunnittelutoimisto/Arkkitehtisuunnittelu+Niskanen/Oulu/yhteystiedot/2147095
2P Arch Oy,Mäntytie 3,00270,Helsinki,61.64737555,27.082013728699593,https://www.finder.fi/Arkkitehtitoimisto+suunnittelutoimisto/2P+Arch+Oy/Helsinki/yhteystiedot/3108265
3 D Tilaihme Oy,Pallaskatu 8 B,15900,Lahti,60.9891324,25.6277066,https://www.finder.fi/Arkkitehtitoimisto+suunnittelutoimisto/3+D+Tilaihme+Oy/Lahti/yhteystiedot/500159
3d Consulting H&E Oy,Harjalinnunkuja 7,01450,Vantaa,60.3592752,25.0736028,https://www.finder.fi/Arkkitehtitoimisto+suunnittelutoimisto/3d+Consulting+H%26E+Oy/Vantaa/yhteystiedot/2356104
3design Oy,Kehrontie 383,37420,Vesilahti,61.1649312,23.4479248,https://www.finder.fi/Arkkitehtitoimisto+suunnittelutoimisto/3design+Oy/Vesilahti/yhteystiedot/3347085
A&M-valvonta,Määrlytie 1,40530,Jyväskylä,62.17562615,25.71524475452599,https://www.finder.fi/Arkkitehtitoimisto+suunnittelutoimisto/A%26M-valvonta/Jyv%C3%A4skyl%C3%A4/yhteystiedot/2926820
AFOark-konsultit,Patalantie 13,90410,Oulu,64.9563844,25.5003632,https://www.finder.fi/Arkkitehtitoimisto+suunnittelutoimisto/AFOark-konsultit/Oulu/yhteystiedot/3190115
AJH-Team Ky,Peltorivi 8,10470,Fiskari,60.1310151,23.54725015,https://www.finder.fi/Arkkitehtitoimisto+suunnittelutoimisto/AJH-Team+Ky/Fiskari/yhteystiedot/2272442
AK-RA talosuunnittelu,Latotie 9,67600,Kokkola,60.1634425,24.718249735498155,https://www.finder.fi/Arkkitehtitoimisto+suunnittelutoimisto/AK-RA+talosuunnittelu/Kokkola/yhteystiedot/2841990
ARK Group Oy,Halkokorvenkatu 16,15240,Lahti,61.0231444,25.6511784,https://www.finder.fi/Arkkitehtitoimisto+suunnittelutoimisto/ARK+Group+Oy/Lahti/yhteystiedot/3190823
ARK Hintikka Oy,Sumeliuksenkatu 18 B,33100,Tampere,61.4949659,23.7771057,https://www.finder.fi/Arkkitehtitoimisto+suunnittelutoimisto/ARK+Hintikka+Oy/Tampere/yhteystiedot/1608682
ARK Viikari Oy,Lokkikuja 5 F,00200,Helsinki,60.216167,22.9011864,https://www.finder.fi/Arkkitehtitoimisto+suunnittelutoimisto/ARK+Viikari+Oy/Helsinki/yhteystiedot/125868
ARK-Cardio Oy,Suistamonkatu 102,74120,Iisalmi,62.5916297,29.7910685,https://www.finder.fi/Arkkitehtitoimisto+suunnittelutoimisto/ARK-Cardio+Oy/Iisalmi/yhteystiedot/414642
ARK-Palvelu M. Heikkinen,Papinojantie 10,36200,Kangasala,61.4835491,24.0328562,https://www.finder.fi/Arkkitehtitoimisto+suunnittelutoimisto/ARK-Palvelu+M+Heikkinen/Kangasala/yhteystiedot/942369
ARK-Suunnittelu Ari Reunanen,Ketunpesäntie 10,21350,Ilmarinen,62.577399,29.8726708,https://www.finder.fi/Arkkitehtitoimisto+suunnittelutoimisto/ARK-Suunnittelu+Ari+Reunanen/Ilmarinen/yhteystiedot/276082
ARK-Y Oy,Valkonauhantie 9,02700,Kauniainen,60.2207791,24.7106216,https://www.finder.fi/Arkkitehtitoimisto+suunnittelutoimisto/ARK-Y+Oy/Kauniainen/yhteystiedot/928362
ARK-suunnittelu Aimo Suuronen,Kehruukatu 7,20660,Littoinen,60.4423667,22.394390740071977,https://www.finder.fi/Arkkitehtitoimisto+suunnittelutoimisto/ARK-suunnittelu+Aimo+Suuronen/Littoinen/yhteystiedot/205659
ARKCons Oy,Nelikkokuja 5 D,02230,Espoo,60.249437,24.8974399,https://www.finder.fi/Arkkitehtitoimisto+suunnittelutoimisto/ARKCons+Oy/Espoo/yhteystiedot/3263794
ARKH arkkitehdit Oy,Meritullinkatu 11 C,00170,Helsinki,60.1717519,24.9584567,https://www.finder.fi/Arkkitehtitoimisto+suunnittelutoimisto/ARKH+arkkitehdit+Oy/Helsinki/yhteystiedot/3190017
ARS-Suunnittelu,Riihitie 9,87830,Nakertaja,61.517559500000004,27.256342352721408,https://www.finder.fi/Arkkitehtitoimisto+suunnittelutoimisto/ARS-Suunnittelu/Nakertaja/yhteystiedot/3023075
Aarni Arkkitehtuuri Oy,Kauppatie 2,04300,Tuusula,63.0646185,28.324191,https://www.finder.fi/Arkkitehtitoimisto+suunnittelutoimisto/Aarni+Arkkitehtuuri+Oy/Tuusula/yhteystiedot/344948
Ab Christer Holm Architecture Oy,Wolffskavägen 36,65200,Vasa,63.1042143,21.5980635,https://www.finder.fi/Arkkitehtitoimisto+suunnittelutoimisto/Ab+Christer+Holm+Architecture+Oy/Vasa/yhteystiedot/527048
Acid Design Oy,Kuoppatie 2 a,00730,Helsinki,65.1402162,25.3786107,https://www.finder.fi/Arkkitehtitoimisto+suunnittelutoimisto/Acid+Design+Oy/Helsinki/yhteystiedot/329282
Aedes Oy,Krenatöörintie 25,02680,Espoo,60.2389583,24.8274002,https://www.finder.fi/Arkkitehtitoimisto+suunnittelutoimisto/Aedes+Oy/Espoo/yhteystiedot/124022
Afry Group Finland Oy,Jaakonkatu 3,01620,Vantaa,60.1696944,24.932085,https://www.finder.fi/Insin%C3%B6%C3%B6ritoimisto+suunnittelutoimisto/Afry+Group+Finland+Oy/Vantaa/yhteystiedot/141288
Aibeo Tmi,Viipurinkatu 8,00510,Helsinki,60.1909441,24.9441925,https://www.finder.fi/Arkkitehtitoimisto+suunnittelutoimisto/Aibeo+Tmi/Helsinki/yhteystiedot/3286388
Airas Arkkitehdit Ky,Pohjoisniementie 3 C,00200,Helsinki,62.3357896,27.8938863,https://www.finder.fi/Arkkitehtitoimisto+suunnittelutoimisto/Airas+Arkkitehdit+Ky/Helsinki/yhteystiedot/330051
Aivan Oy,Laivakatu 3,00150,Helsinki,60.1541888,24.9300215,https://www.finder.fi/Arkkitehtitoimisto+suunnittelutoimisto/Aivan+Oy/Helsinki/yhteystiedot/1689728
Aksila Tomi Tmi,Etelänkyläntie 12 A,85100,Kalajoki,64.2522513,23.9454761,https://www.finder.fi/Arkkitehtitoimisto+suunnittelutoimisto/Aksila+Tomi+Tmi/Kalajoki/yhteystiedot/1820263
Alark Oy,Laivalahdenkaari 30,00810,Helsinki,60.186383,25.0342094,https://www.finder.fi/Arkkitehtitoimisto+suunnittelutoimisto/Alark+Oy/Helsinki/yhteystiedot/3186310
Alt Arkkitehdit Oy,Hallituskatu 13-17 D,90100,Oulu,60.1699238,24.9477238,https://www.finder.fi/Arkkitehtitoimisto+suunnittelutoimisto/Alt+Arkkitehdit+Oy/Oulu/yhteystiedot/2261547
Amfi Arkkitehdit Oy,Kalevankatu 6,00100,Helsinki,60.1674861,24.9388372,https://www.finder.fi/Arkkitehtitoimisto+suunnittelutoimisto/Amfi+Arkkitehdit+Oy/Helsinki/yhteystiedot/495515
Anna Oksanen oy,Äestie 5,10470,Fiskari,60.4567801,22.33019805,https://www.finder.fi/Arkkitehtitoimisto+suunnittelutoimisto/Anna+Oksanen+oy/Fiskari/yhteystiedot/867428
Ar-Ke Invest Oy,Luotipussi 16,40630,Jyväskylä,62.24686735,25.691252902523907,https://www.finder.fi/Arkkitehtitoimisto+suunnittelutoimisto/Ar-Ke+Invest+Oy/Jyv%C3%A4skyl%C3%A4/yhteystiedot/381590
Arch. Wood Ky,Markankatu 14,15240,Lahti,61.0225721,25.6698267,https://www.finder.fi/Arkkitehtitoimisto+suunnittelutoimisto/Arch+Wood+Ky/Lahti/yhteystiedot/3030273
Architect Office Sakari Talonen,Niilonkatu 24,20810,Turku,60.4333814,22.244888267959933,https://www.finder.fi/Arkkitehtitoimisto+suunnittelutoimisto/Architect+Office+Sakari+Talonen/Turku/yhteystiedot/548751
Architectural Office Walter Oliver Oy,Myllypadontie 14 F,00920,Helsinki,60.2212769,25.0579189,https://www.finder.fi/Arkkitehtitoimisto+suunnittelutoimisto/Architectural+Office+Walter+Oliver+Oy/Helsinki/yhteystiedot/1165154
Archonplan Oy,Pitkäjärvenranta 19 B,02730,Espoo,60.2532667,24.7571322,https://www.finder.fi/Arkkitehtitoimisto+suunnittelutoimisto/Archonplan+Oy/Espoo/yhteystiedot/879014
Arcing Tmi,Linnankatu 9 D 71,20100,Turku,60.4425766,22.2483657,https://www.finder.fi/Arkkitehtitoimisto+suunnittelutoimisto/Arcing+Tmi/Turku/yhteystiedot/2027418
"Arcteam, Risto Kaakko, Arkkitehti & Co",Kappelikuja 6 D,02200,Espoo,61.4457876,24.0461489,https://www.finder.fi/Arkkitehtitoimisto+suunnittelutoimisto/Arcteam+Risto+Kaakko+Arkkitehti+%26+Co/Espoo/yhteystiedot/232230
Arcwell Oy,Komeetankuja 4 A,02210,Espoo,60.1670283,24.7339525,https://www.finder.fi/Arkkitehtitoimisto+suunnittelutoimisto/Arcwell+Oy/Espoo/yhteystiedot/329975
Aretas,Mikonkatu 15,33900,Tampere,60.1713394,24.9454997,https://www.finder.fi/Arkkitehtitoimisto+suunnittelutoimisto/Aretas/Tampere/yhteystiedot/1239029
Ari Kiiski,Kievarintie 73,48810,Kotka,64.9497815,25.675483,https://www.finder.fi/Arkkitehtitoimisto+suunnittelutoimisto/Ari+Kiiski/Kotka/yhteystiedot/3539151
Ark 5 Oy,Höylätie 3,60550,Nurmo,60.2587341,24.822532436090768,https://www.finder.fi/Arkkitehtitoimisto+suunnittelutoimisto/Ark+5+Oy/Nurmo/yhteystiedot/2990764
Ark Renew Oy,Kukkastie 24,15560,Nastola,60.9486439,25.9208796,https://www.finder.fi/Arkkitehtitoimisto+suunnittelutoimisto/Ark+Renew+Oy/Nastola/yhteystiedot/125582
Ark-Bau Oy,Hämeenkatu 24-26,11100,Riihimäki,60.73796985,24.77198409335024,https://www.finder.fi/Arkkitehtitoimisto+suunnittelutoimisto/Ark-Bau+Oy/Riihim%C3%A4ki/yhteystiedot/125636
ArkJMH arkkitehtitoimisto,Linnankatu 26,20100,Turku,60.1662401,24.9675914,https://www.finder.fi/Arkkitehtitoimisto+suunnittelutoimisto/ArkJMH+arkkitehtitoimisto/Turku/yhteystiedot/3283334
ArkOpen Oy,Töölönkatu 6,00100,Helsinki,60.1750174,24.9298896,https://www.finder.fi/Arkkitehtitoimisto+suunnittelutoimisto/ArkOpen+Oy/Helsinki/yhteystiedot/232097
ArkWire Oy,Käköläntie 161,21100,Naantali,60.4448026,22.0229199,https://www.finder.fi/Arkkitehtitoimisto+suunnittelutoimisto/ArkWire+Oy/Naantali/yhteystiedot/2357696
Arkaden arkitekt & bygg,Vedbergsvägen 100,22240,Hammarland,60.2844822,19.7591722,https://www.finder.fi/Arkkitehtitoimisto+suunnittelutoimisto/Arkaden+arkitekt+%26+bygg/Hammarland/yhteystiedot/1237765
Arkadi Arkkitehdit Oy,Voudintie 4,90400,Oulu,60.219365100000005,24.964628964847037,https://www.finder.fi/Arkkitehtitoimisto+suunnittelutoimisto/Arkadi+Arkkitehdit+Oy/Oulu/yhteystiedot/3569024
Arkdesign,Vanhatie 73,90310,Oulu,60.169069,24.94071147213262,https://www.finder.fi/Arkkitehtitoimisto+suunnittelutoimisto/Arkdesign/Oulu/yhteystiedot/819340
Arkdi Plan Oy,Frans Emilin katu 13,33870,Tampere,61.4381629,23.81614155396113,https://www.finder.fi/Arkkitehtitoimisto+suunnittelutoimisto/Arkdi+Plan+Oy/Tampere/yhteystiedot/2468888
Arkest Arkkitehdit Ky,Hallituskatu 13-17 D,90100,Oulu,60.1699238,24.9477238,https://www.finder.fi/Arkkitehtitoimisto+suunnittelutoimisto/Arkest+Arkkitehdit+Ky/Oulu/yhteystiedot/3170748
Arket,Sailonkuja 10,02700,Kauniainen,60.2225854,24.7149478,https://www.finder.fi/Arkkitehtitoimisto+suunnittelutoimisto/Arket/Kauniainen/yhteystiedot/298788
Arkhe Oy,Askonkatu 9 A,15100,Lahti,61.4769887,23.8734753,https://www.finder.fi/Arkkitehtitoimisto+suunnittelutoimisto/Arkhe+Oy/Lahti/yhteystiedot/3136936
Arkite D,Ketunlenkki 29,90540,Oulu,65.0818876,25.4686558,https://www.finder.fi/Arkkitehtitoimisto+suunnittelutoimisto/Arkite+D/Oulu/yhteystiedot/3305400
Arkitekt Ab / Arkkitehti Oy Rajaniemi,Hämeenkatu 14,68600,Pietarsaari,60.4508107,22.2795754,https://www.finder.fi/Arkkitehtitoimisto+suunnittelutoimisto/Arkitekt+Ab+Arkkitehti+Oy+Rajaniemi/Pietarsaari/yhteystiedot/527772
Arkitekt Jeanette Skinnars,Torpvägen 66,22240,Hammarland,59.320522,13.5385062,https://www.finder.fi/Arkkitehtitoimisto+suunnittelutoimisto/Arkitekt+Jeanette+Skinnars/Hammarland/yhteystiedot/3354977
Arkitektbyrå Ebba Michelsson Arkem Ab,Emsalövägen 696,06950,Emsalö,60.2620473,25.6362884,https://www.finder.fi/Arkkitehtitoimisto+suunnittelutoimisto/Arkitektbyr%C3%A5+Ebba+Michelsson+Arkem+Ab/Emsal%C3%B6/yhteystiedot/1496464
Arkitektbyrå Kasper Järnefelt Ab,Solbergvägen 491,10140,Solberg,58.4642975,8.7369663,https://www.finder.fi/Arkkitehtitoimisto+suunnittelutoimisto/Arkitektbyr%C3%A5+Kasper+J%C3%A4rnefelt+Ab/Solberg/yhteystiedot/506115
Arkitektbyrå Tiina Holmberg Ab,Torggatan 47,22100,Mariehamn,56.8758103,14.822265,https://www.finder.fi/Arkkitehtitoimisto+suunnittelutoimisto/Arkitektbyr%C3%A5+Tiina+Holmberg+Ab/Mariehamn/yhteystiedot/496883
Arkitektbyrå Ursula Koponen,Dalkarbyvägen 125,22150,Jomala,60.1881399,22.7123988,https://www.finder.fi/Arkkitehtitoimisto+suunnittelutoimisto/Arkitektbyr%C3%A5+Ursula+Koponen/Jomala/yhteystiedot/3127238
Arkitekturbyrå Patrick Holmström,Kaarlentie 33,20880,Turku,60.4231677,22.27147596703207,https://www.finder.fi/Arkkitehtitoimisto+suunnittelutoimisto/Arkitekturbyr%C3%A5+Patrick+Holmstr%C3%B6m/Turku/yhteystiedot/2505444
Arkjaatiset Oy,Hatanpään Valtatie 30 A,33100,Tampere,61.484093,23.7624844,https://www.finder.fi/Arkkitehtitoimisto+suunnittelutoimisto/Arkjaatiset+Oy/Tampere/yhteystiedot/116556
Arkk Sarapää Oy,Ruusulankatu 3,00260,Helsinki,60.1816479,24.9254356,https://www.finder.fi/Arkkitehtitoimisto+suunnittelutoimisto/Arkk+Sarap%C3%A4%C3%A4+Oy/Helsinki/yhteystiedot/2261568
Arkkan Oy,Kaunismäenrinne 12,70870,Hiltulanlahti,62.8161302,27.5965065,https://www.finder.fi/Arkkitehtitoimisto+suunnittelutoimisto/Arkkan+Oy/Hiltulanlahti/yhteystiedot/377118
Arkkiaines Jarmo Ranto Tmi,Paloniityntie 28 a,33610,Tampere,61.5119556,23.9378952,https://www.finder.fi/Arkkitehtitoimisto+suunnittelutoimisto/Arkkiaines+Jarmo+Ranto+Tmi/Tampere/yhteystiedot/116648
Arkkiline Oy,Hirvelänpääntie 261,64770,Äystö,62.5333777,21.9671712,https://www.finder.fi/Arkkitehtitoimisto+suunnittelutoimisto/Arkkiline+Oy/%C3%84yst%C3%B6/yhteystiedot/1216315
Arkkimer Oy,Kanttiinitie 1 F,02680,Espoo,60.2374468,24.8342875,https://www.finder.fi/Arkkitehtitoimisto+suunnittelutoimisto/Arkkimer+Oy/Espoo/yhteystiedot/2469155
Arkkited Oy,Susitie 10 B,00800,Helsinki,60.6952938,26.8003694,https://www.finder.fi/Arkkitehtitoimisto+suunnittelutoimisto/Arkkited+Oy/Helsinki/yhteystiedot/1950396
Arkkitehdit A3 Oy,Ilmarinkatu 47,33500,Tampere,61.5022168,23.800469,https://www.finder.fi/Arkkitehtitoimisto+suunnittelutoimisto/Arkkitehdit+A3+Oy/Tampere/yhteystiedot/892367
Arkkitehdit Ahlström Oy,Pereentie 43,33950,Pirkkala,64.6669134,24.4988601,https://www.finder.fi/Arkkitehtitoimisto+suunnittelutoimisto/Arkkitehdit+Ahlstr%C3%B6m+Oy/Pirkkala/yhteystiedot/116638
Arkkitehdit Ali-Kovero,Puhurinpolku 1 A,02120,Espoo,60.1741783,24.7893079,https://www.finder.fi/Arkkitehtitoimisto+suunnittelutoimisto/Arkkitehdit+Ali-Kovero/Espoo/yhteystiedot/330009
Arkkitehdit Anttila & Rusanen Oy,Mechelininkatu 1a,00180,Helsinki,60.1635162,24.9210628,https://www.finder.fi/Arkkitehtitoimisto+suunnittelutoimisto/Arkkitehdit+Anttila+%26+Rusanen+Oy/Helsinki/yhteystiedot/3152566
Arkkitehdit Archeus,Hintantie 18,90500,Oulu,65.02392309999999,25.498426431870218,https://www.finder.fi/Arkkitehtitoimisto+suunnittelutoimisto/Arkkitehdit+Archeus/Oulu/yhteystiedot/222594
"Arkkitehdit Asta Björklund, Risto Iivonen Oy",Kuortaneenkatu 5,00520,Helsinki,60.1963936,24.9452067,https://www.finder.fi/Arkkitehtitoimisto+suunnittelutoimisto/Arkkitehdit+Asta+Bj%C3%B6rklund+Risto+Iivonen+Oy/Helsinki/yhteystiedot/894221
Arkkitehdit Auer & Sandås Oy,Kadetintie 12,00330,Helsinki,60.1961115,24.8802146,https://www.finder.fi/Arkkitehtitoimisto+suunnittelutoimisto/Arkkitehdit+Auer+%26+Sand%C3%A5s+Oy/Helsinki/yhteystiedot/330010
Arkkitehdit Casagrande Oy,Sirkkalankatu 1 A,20520,Turku,60.450134,22.290227,https://www.finder.fi/Arkkitehtitoimisto+suunnittelutoimisto/Arkkitehdit+Casagrande+Oy/Turku/yhteystiedot/1820502
Arkkitehdit Frondelius+ Keppo+ Salmenperä Oy,Kalevankatu 39,00180,Helsinki,60.1649288,24.9311335,https://www.finder.fi/Arkkitehtitoimisto+suunnittelutoimisto/Arkkitehdit+Frondelius+Keppo+Salmenper%C3%A4+Oy/Helsinki/yhteystiedot/330200
Arkkitehdit Groop & Tiensuu Oy,Laidunrinne 7b,02330,Espoo,60.1682425,24.6705962,https://www.finder.fi/Arkkitehtitoimisto+suunnittelutoimisto/Arkkitehdit+Groop+%26+Tiensuu+Oy/Espoo/yhteystiedot/125611
Arkkitehdit Hannunkari & Mäkipaja Oy,Eiranranta 7,00150,Helsinki,60.154750199999995,24.931700104572876,https://www.finder.fi/Arkkitehtitoimisto+suunnittelutoimisto/Arkkitehdit+Hannunkari+%26+M%C3%A4kipaja+Oy/Helsinki/yhteystiedot/330014
Arkkitehdit Ingervo Consulting Oy,Pajamäentie 8 C,00360,Helsinki,60.4344517,24.1033444,https://www.finder.fi/Arkkitehtitoimisto+suunnittelutoimisto/Arkkitehdit+Ingervo+Consulting+Oy/Helsinki/yhteystiedot/125623
Arkkitehdit Kanerva Oy,Vuorineuvoksentie 4,00570,Helsinki,60.184974,24.998952,https://www.finder.fi/Arkkitehtitoimisto+suunnittelutoimisto/Arkkitehdit+Kanerva+Oy/Helsinki/yhteystiedot/1612356
Arkkitehdit Kirsi Korhonen ja Mika Penttinen Oy,Meritullintori 3 A,00170,Helsinki,60.1681631,24.957241,https://www.finder.fi/Arkkitehtitoimisto+suunnittelutoimisto/Arkkitehdit+Kirsi+Korhonen+ja+Mika+Penttinen+Oy/Helsinki/yhteystiedot/330018
Arkkitehdit Korolainen & Heino Oy,Tinasepäntie 45,00620,Helsinki,60.2242362,24.9425228,https://www.finder.fi/Arkkitehtitoimisto+suunnittelutoimisto/Arkkitehdit+Korolainen+%26+Heino+Oy/Helsinki/yhteystiedot/1645829
Arkkitehdit Mauno Huurre & Kari Vaara Oy,Petäjäniementie 17 B,88350,Kivesjärvi,63.1290955,28.3288579,https://www.finder.fi/Arkkitehtitoimisto+suunnittelutoimisto/Arkkitehdit+Mauno+Huurre+%26+Kari+Vaara+Oy/Kivesj%C3%A4rvi/yhteystiedot/125622
Arkkitehdit NRT Oy,Kalevankatu 31,00100,Helsinki,60.1649288,24.9311335,https://www.finder.fi/Arkkitehtitoimisto+suunnittelutoimisto/Arkkitehdit+NRT+Oy/Helsinki/yhteystiedot/1239821
Arkkitehdit Oy Janne Lehtipalo,Kansankatu 22,96200,Rovaniemi,61.69627355,27.27403210627391,https://www.finder.fi/Arkkitehtitoimisto+suunnittelutoimisto/Arkkitehdit+Oy+Janne+Lehtipalo/Rovaniemi/yhteystiedot/125650
Arkkitehdit Oy Latva ja Vaara,Mariankatu 14 B 12,15110,Lahti,60.1736797,24.9564681,https://www.finder.fi/Arkkitehtitoimisto+suunnittelutoimisto/Arkkitehdit+Oy+Latva+ja+Vaara/Lahti/yhteystiedot/1703621
Arkkitehdit Oy Vaara,Pakaantie 1,16300,Orimattila,60.661373,25.7018536,https://www.finder.fi/Arkkitehtitoimisto+suunnittelutoimisto/Arkkitehdit+Oy+Vaara/Orimattila/yhteystiedot/2899178
Arkkitehdit Q4 Oy,Sentnerikuja 3,00440,Helsinki,60.2277969,24.8789647,https://www.finder.fi/Arkkitehtitoimisto+suunnittelutoimisto/Arkkitehdit+Q4+Oy/Helsinki/yhteystiedot/2763182
Arkkitehdit Sarlin+Sopanen Oy,Pursimiehenkatu 26 C,00150,Helsinki,60.1607481,24.9417164,https://www.finder.fi/Arkkitehtitoimisto+suunnittelutoimisto/Arkkitehdit+Sarlin+Sopanen+Oy/Helsinki/yhteystiedot/545251
Arkkitehdit Soini & Horto / Inter-Arch Oy,Mäntykalliontie 2 C,02270,Espoo,60.1626328,24.6883875,https://www.finder.fi/Arkkitehtitoimisto+suunnittelutoimisto/Arkkitehdit+Soini+%26+Horto+Inter-Arch+Oy/Espoo/yhteystiedot/140329
Arkkitehdit Stenman Oy,Killivuorenkatu 25 A,20900,Turku,60.4143078,22.2362392,https://www.finder.fi/Arkkitehtitoimisto+suunnittelutoimisto/Arkkitehdit+Stenman+Oy/Turku/yhteystiedot/356466
Arkkitehdit Westerlund Oy,Mustankalliontie 27 A 12,15140,Lahti,60.9861406,25.6742504,https://www.finder.fi/Arkkitehtitoimisto+suunnittelutoimisto/Arkkitehdit+Westerlund+Oy/Lahti/yhteystiedot/125628
Arkkitehdit a-live Osuuskunta,Menninkäisentie 5 C,02110,Espoo,60.9413016,25.982738,https://www.finder.fi/Arkkitehtitoimisto+suunnittelutoimisto/Arkkitehdit+a-live+Osuuskunta/Espoo/yhteystiedot/867859
Arkkitehdit m3 Oy,Kauppurienkatu 23,90100,Oulu,65.0106256,25.47538920419746,https://www.finder.fi/Arkkitehtitoimisto+suunnittelutoimisto/Arkkitehdit+m3+Oy/Oulu/yhteystiedot/416397
Arkkitehdit von Boehm - Renell Oy,Pursimiehenkatu 26 C,00150,Helsinki,60.1607481,24.9417164,https://www.finder.fi/Arkkitehtitoimisto+suunnittelutoimisto/Arkkitehdit+von+Boehm+-+Renell+Oy/Helsinki/yhteystiedot/125658
Arkkitehdit-Niiranen Oy,Lepolantie 92 A,00660,Helsinki,64.347863,26.2747253,https://www.finder.fi/Arkkitehtitoimisto+suunnittelutoimisto/Arkkitehdit-Niiranen+Oy/Helsinki/yhteystiedot/1519229
Arkkitehti Hannu Tylli,Kankaronkatu 2-4 E,45120,Kouvola,60.8618917,26.7112379,https://www.finder.fi/Arkkitehtitoimisto+suunnittelutoimisto/Arkkitehti+Hannu+Tylli/Kouvola/yhteystiedot/1899685
Arkkitehti Heikki Toivanen,Nousialantie 1,59800,Kesälahti,63.4454198,26.6237487,https://www.finder.fi/Arkkitehtitoimisto+suunnittelutoimisto/Arkkitehti+Heikki+Toivanen/Kes%C3%A4lahti/yhteystiedot/2821429
Arkkitehti Jukka Ollikainen,Limingantie 82,00560,Helsinki,60.206107,24.9578412,https://www.finder.fi/Arkkitehtitoimisto+suunnittelutoimisto/Arkkitehti+Jukka+Ollikainen/Helsinki/yhteystiedot/3209741
Arkkitehti Nelly Isopahkala Oy,Torvikuja 2,90670,Oulu,65.0064528,25.6039565,https://www.finder.fi/Arkkitehtitoimisto+suunnittelutoimisto/Arkkitehti+Nelly+Isopahkala+Oy/Oulu/yhteystiedot/3561618
Arkkitehti Olli Aalto,Lasaretinkuja 10,13130,Hämeenlinna,60.99227835,24.431050436962515,https://www.finder.fi/Arkkitehtitoimisto+suunnittelutoimisto/Arkkitehti+Olli+Aalto/H%C3%A4meenlinna/yhteystiedot/2920151
Arkkitehti Oy Asmala,Länsipuisto 17,28100,Pori,61.4864121,21.7880188,https://www.finder.fi/Arkkitehtitoimisto+suunnittelutoimisto/Arkkitehti+Oy+Asmala/Pori/yhteystiedot/125630
Arkkitehti Oy Jouko Poskiparta,Lastenkodinkuja 2,00180,Helsinki,60.166142,24.9250083,https://www.finder.fi/Arkkitehtitoimisto+suunnittelutoimisto/Arkkitehti+Oy+Jouko+Poskiparta/Helsinki/yhteystiedot/330035
Arkkitehti Oy Reijo Lahtinen,Suomenlinna C 21,00190,Helsinki,60.143999,24.992368253878848,https://www.finder.fi/Arkkitehtitoimisto+suunnittelutoimisto/Arkkitehti+Oy+Reijo+Lahtinen/Helsinki/yhteystiedot/534565
Arkkitehti Seppo Mäntylä,Laivapojankatu 3 C,00180,Helsinki,60.1603101,24.9198986,https://www.finder.fi/Arkkitehtitoimisto+suunnittelutoimisto/Arkkitehti+Seppo+M%C3%A4ntyl%C3%A4/Helsinki/yhteystiedot/868320
Arkkitehti Tanninen Orvokki,Koivukyläntie 46,01350,Vantaa,60.3140858,25.032012594050315,https://www.finder.fi/Arkkitehtitoimisto+suunnittelutoimisto/Arkkitehti+Tanninen+Orvokki/Vantaa/yhteystiedot/500229
Arkkitehti Turkki Antero,Mustavaarantie 6,81235,Lehtoi,62.8046743,30.1070023,https://www.finder.fi/Arkkitehtitoimisto+suunnittelutoimisto/Arkkitehti+Turkki+Antero/Lehtoi/yhteystiedot/410831
Arkkitehti- ja Rakennesuunnittelu Tarvainen Oy,Salmensillantie 47,41340,Laukaa,62.382357400000004,25.923431314722276,https://www.finder.fi/Arkkitehtitoimisto+suunnittelutoimisto/Arkkitehti-+ja+Rakennesuunnittelu+Tarvainen+Oy/Laukaa/yhteystiedot/320730
Arkkitehti- ja Suunnittelukonttori Liimatta & Kosola,Kauppatie 41,82900,Ilomantsi,66.3720944,25.3795123,https://www.finder.fi/Arkkitehtitoimisto+suunnittelutoimisto/Arkkitehti-+ja+Suunnittelukonttori+Liimatta+%26+Kosola/Ilomantsi/yhteystiedot/1049073
Arkkitehti- ja Ympäristösuunnittelu Hentilä & Lindborg Oy,Koskitie 54,90500,Oulu,60.5997484,24.8499318,https://www.finder.fi/Arkkitehtitoimisto+suunnittelutoimisto/Arkkitehti-+ja+Ymp%C3%A4rist%C3%B6suunnittelu+Hentil%C3%A4+%26+Lindborg+Oy/Oulu/yhteystiedot/330033
Arkkitehti- ja insinööritoimisto Airi ja Keijo Kentala,Lakkimestarintie 4,61310,Panttila,62.6630397,22.4059505,https://www.finder.fi/Arkkitehtitoimisto+suunnittelutoimisto/Arkkitehti-+ja+insin%C3%B6%C3%B6ritoimisto+Airi+ja+Keijo+Kentala/Panttila/yhteystiedot/2940965
Arkkitehti- ja insinööritoimisto Motiivi Oy,Koulukatu 48,60100,Seinäjoki,62.604892,29.7599546,https://www.finder.fi/Arkkitehtitoimisto+suunnittelutoimisto/Arkkitehti-+ja+insin%C3%B6%C3%B6ritoimisto+Motiivi+Oy/Sein%C3%A4joki/yhteystiedot/158377
Arkkitehti- ja suunnittelutoimisto Martin Wolff,Eteläranta 8,28100,Pori,60.1647466,24.9523799,https://www.finder.fi/Arkkitehtitoimisto+suunnittelutoimisto/Arkkitehti-+ja+suunnittelutoimisto+Martin+Wolff/Pori/yhteystiedot/3052208
Arkkitehti-Cadpalvelu Päivi Mäntylä,Vajamäki 10 F,33960,Pirkkala,61.4599782,23.6640712,https://www.finder.fi/Arkkitehtitoimisto+suunnittelutoimisto/Arkkitehti-Cadpalvelu+P%C3%A4ivi+M%C3%A4ntyl%C3%A4/Pirkkala/yhteystiedot/116647
Arkkitehtiasema Oy,Karjakatu 12,90130,Oulu,60.57506085,27.19488175502048,https://www.finder.fi/Arkkitehtitoimisto+suunnittelutoimisto/Arkkitehtiasema+Oy/Oulu/yhteystiedot/270247
Arkkitehtiateljee Johan Pfeifer Oy,Linnankatu 16 D,06100,Porvoo,60.1662401,24.9675914,https://www.finder.fi/Arkkitehtitoimisto+suunnittelutoimisto/Arkkitehtiateljee+Johan+Pfeifer+Oy/Porvoo/yhteystiedot/2781168
Arkkitehtidea,Tuomalantie 85,15340,Lahti,61.0090512,25.8356302,https://www.finder.fi/Arkkitehtitoimisto+suunnittelutoimisto/Arkkitehtidea/Lahti/yhteystiedot/500230
Arkkitehtikonttori Ritva-Maija Saarinen,Villenkatu 22,18100,Heinola,60.5731704,27.1926542,https://www.finder.fi/Arkkitehtitoimisto+suunnittelutoimisto/Arkkitehtikonttori+Ritva-Maija+Saarinen/Heinola/yhteystiedot/506112
Arkkitehtikuvio Oy,Halsuantie 2,00420,Helsinki,60.237886950000004,24.886665950699488,https://www.finder.fi/Arkkitehtitoimisto+suunnittelutoimisto/Arkkitehtikuvio+Oy/Helsinki/yhteystiedot/330040
Arkkitehtikuvio Oy Helsinki,Halsuantie 2,00420,Helsinki,60.237886950000004,24.886665950699488,https://www.finder.fi/Arkkitehtitoimisto+suunnittelutoimisto/Arkkitehtikuvio+Oy+Helsinki/Helsinki/yhteystiedot/3196988
Arkkitehtipaja Kynä ja Vasara,Santalahti,37200,Siuro,61.5061502,23.7138488,https://www.finder.fi/Arkkitehtitoimisto+suunnittelutoimisto/Arkkitehtipaja+Kyn%C3%A4+ja+Vasara/Siuro/yhteystiedot/116655
Arkkitehtipalvelu Korhonen Outi,Hiekkaranta 3,50130,Mikkeli,61.6735222,27.23912964078068,https://www.finder.fi/Arkkitehtitoimisto+suunnittelutoimisto/Arkkitehtipalvelu+Korhonen+Outi/Mikkeli/yhteystiedot/389310
Arkkitehtipalvelu Oy,Keskussairaalantie 2,40600,Jyväskylä,62.2329002,25.7184253,https://www.finder.fi/Arkkitehtitoimisto+suunnittelutoimisto/Arkkitehtipalvelu+Oy/Jyv%C3%A4skyl%C3%A4/yhteystiedot/2098907
Arkkitehtipalvelu Päivärinne SP,Rautellinkatu 9 C,15140,Lahti,60.9847949,25.6763513,https://www.finder.fi/Arkkitehtitoimisto+suunnittelutoimisto/Arkkitehtipalvelu+P%C3%A4iv%C3%A4rinne+SP/Lahti/yhteystiedot/3114993
Arkkitehtipalvelu Säkkinen Esa,Lampintie 5,69300,Toholampi,63.77474075,24.24798648040798,https://www.finder.fi/Arkkitehtitoimisto+suunnittelutoimisto/Arkkitehtipalvelu+S%C3%A4kkinen+Esa/Toholampi/yhteystiedot/267861
Arkkitehtiruutu Oy Tampere,Viinikankatu 47,33800,Tampere,61.48055585,23.783529717277702,https://www.finder.fi/Arkkitehtitoimisto+suunnittelutoimisto/Arkkitehtiruutu+Oy+Tampere/Tampere/yhteystiedot/116681
Arkkitehtiryhmä A6 Oy,Pursimiehenkatu 29 A,00150,Helsinki,60.1607481,24.9417164,https://www.finder.fi/Arkkitehtitoimisto+suunnittelutoimisto/Arkkitehtiryhm%C3%A4+A6+Oy/Helsinki/yhteystiedot/125640
Arkkitehtiryhmä Reino Koivula Oy,Taivalmäki 11,02200,Espoo,60.1684378,24.772861434037864,https://www.finder.fi/Arkkitehtitoimisto+suunnittelutoimisto/Arkkitehtiryhm%C3%A4+Reino+Koivula+Oy/Espoo/yhteystiedot/2805022
"Arkkitehtistudio E & M, Erkki Pitkäranta Ky",Sepänkatu 17 F,00150,Helsinki,61.6988,27.297424,https://www.finder.fi/Arkkitehtitoimisto+suunnittelutoimisto/Arkkitehtistudio+E+%26+M+Erkki+Pitk%C3%A4ranta+Ky/Helsinki/yhteystiedot/858659
Arkkitehtistudio EMP Oy,Heikkilänsaarentie 41 d,90310,Oulu,64.9696806,25.6252034,https://www.finder.fi/Arkkitehtitoimisto+suunnittelutoimisto/Arkkitehtistudio+EMP+Oy/Oulu/yhteystiedot/125694
Arkkitehtistudio Tuomas Niemi Oy,Fransuntie 10,62200,Kauhava,63.1013797,23.0378433,https://www.finder.fi/Arkkitehtitoimisto+suunnittelutoimisto/Arkkitehtistudio+Tuomas+Niemi+Oy/Kauhava/yhteystiedot/2549704
Arkkitehtistudio Vuorinen Oy,Tyysterniemenranta 5,53920,Lappeenranta,61.0701564,28.1526201,https://www.finder.fi/Arkkitehtitoimisto+suunnittelutoimisto/Arkkitehtistudio+Vuorinen+Oy/Lappeenranta/yhteystiedot/232039
Arkkitehtistudio m10,Eläintarhantie 18,00530,Helsinki,60.1799488,24.9488974,https://www.finder.fi/Arkkitehtitoimisto+suunnittelutoimisto/Arkkitehtistudio+m10/Helsinki/yhteystiedot/2770243
Arkkitehtisuunnittelu HETK,Tilhirinne 12,90420,Oulu,64.96363,25.5647259,https://www.finder.fi/Arkkitehtitoimisto+suunnittelutoimisto/Arkkitehtisuunnittelu+HETK/Oulu/yhteystiedot/3112285
Arkkitehtisuunnittelu Hannu Vaisto,Sillankorvantie 23 A,21380,Aura,60.6430806,21.7456291,https://www.finder.fi/Arkkitehtitoimisto+suunnittelutoimisto/Arkkitehtisuunnittelu+Hannu+Vaisto/Aura/yhteystiedot/215528
Arkkitehtisuunnittelu Katja Jämsä,Haapaniemenkatu 29 A 29,70110,Kuopio,60.1811529,24.9584494,https://www.finder.fi/Arkkitehtitoimisto+suunnittelutoimisto/Arkkitehtisuunnittelu+Katja+J%C3%A4ms%C3%A4/Kuopio/yhteystiedot/525571
Arkkitehtisuunnittelu Matti Tölö Oy,Ulvilantie 16 C,00350,Helsinki,60.2082688,24.8642712,https://www.finder.fi/Arkkitehtitoimisto+suunnittelutoimisto/Arkkitehtisuunnittelu+Matti+T%C3%B6l%C3%B6+Oy/Helsinki/yhteystiedot/330052
Arkkitehtisuunnittelu Mika Lang,Kanervatie 7,18200,Heinola,67.77783105,24.927926088297326,https://www.finder.fi/Arkkitehtitoimisto+suunnittelutoimisto/Arkkitehtisuunnittelu+Mika+Lang/Heinola/yhteystiedot/2646438
Arkkitehtisuunnittelu Mikko Uotila Oy,Pätsiniementie 1,37800,Akaa,61.1688042,23.8649259,https://www.finder.fi/Arkkitehtitoimisto+suunnittelutoimisto/Arkkitehtisuunnittelu+Mikko+Uotila+Oy/Akaa/yhteystiedot/2262133
Arkkitehtisuunnittelu Nieminen Oy,Ruorimiehentie 13,00850,Helsinki,60.16457495,25.058618236413047,https://www.finder.fi/Arkkitehtitoimisto+suunnittelutoimisto/Arkkitehtisuunnittelu+Nieminen+Oy/Helsinki/yhteystiedot/125645
Arkkitehtisuunnittelu Niskanen Oy,Savarinväylä 2,84100,Ylivieska,64.0635049,24.548592,https://www.finder.fi/Arkkitehtitoimisto+suunnittelutoimisto/Arkkitehtisuunnittelu+Niskanen+Oy/Ylivieska/yhteystiedot/1242557
Arkkitehtisuunnittelu Oy,Ruomelantie 12 D,02210,Espoo,60.1749141,24.7363814,https://www.finder.fi/Arkkitehtitoimisto+suunnittelutoimisto/Arkkitehtisuunnittelu+Oy/Espoo/yhteystiedot/2222342
Arkkitehtisuunnittelu Pakkanen Oy,Halmeniementie 311,52850,Halmeniemi,62.9181626,27.1451814,https://www.finder.fi/Arkkitehtitoimisto+suunnittelutoimisto/Arkkitehtisuunnittelu+Pakkanen+Oy/Halmeniemi/yhteystiedot/484233
Arkkitehtisuunnittelu Pauli Lindström Oy,Kellotapulintie 8,15560,Nastola,60.9490896,25.9290208,https://www.finder.fi/Arkkitehtitoimisto+suunnittelutoimisto/Arkkitehtisuunnittelu+Pauli+Lindstr%C3%B6m+Oy/Nastola/yhteystiedot/125647
Arkkitehtisuunnittelu Rukko,Oravannahkatori 1,02120,Espoo,60.17564045,24.79240887677539,https://www.finder.fi/Arkkitehtitoimisto+suunnittelutoimisto/Arkkitehtisuunnittelu+Rukko/Espoo/yhteystiedot/785926
Arkkitehtisuunnittelu Siilin Ra-toimisto Oy,Isoharjantie 4,71870,Harjamäki,63.0777479,27.6070364,https://www.finder.fi/Arkkitehtitoimisto+suunnittelutoimisto/Arkkitehtisuunnittelu+Siilin+Ra-toimisto+Oy/Harjam%C3%A4ki/yhteystiedot/174591
Arkkitehtisuunnittelu Tikkanen Jukka Oy,Schaumanin puistotie 1,40100,Jyväskylä,62.24378805,25.763163642459304,https://www.finder.fi/Arkkitehtitoimisto+suunnittelutoimisto/Arkkitehtisuunnittelu+Tikkanen+Jukka+Oy/Jyv%C3%A4skyl%C3%A4/yhteystiedot/125644
Arkkitehtitoimi Leino Oy,Piispankatu 6,20500,Turku,60.45559125,22.28080195000001,https://www.finder.fi/Arkkitehtitoimisto+suunnittelutoimisto/Arkkitehtitoimi+Leino+Oy/Turku/yhteystiedot/328550
Arkkitehtitoiminta A4,Yrjänäisenranta 10,90650,Oulu,65.0217165,25.5289453,https://www.finder.fi/Arkkitehtitoimisto+suunnittelutoimisto/Arkkitehtitoiminta+A4/Oulu/yhteystiedot/878619
Arkkitehtitoimisto 4P Oy,Meri-Haarlantie 27,20900,Turku,60.38525265,22.2192004,https://www.finder.fi/Arkkitehtitoimisto+suunnittelutoimisto/Arkkitehtitoimisto+4P+Oy/Turku/yhteystiedot/866173
Arkkitehtitoimisto A-Studio Oy,Iinatintie 15,90240,Oulu,64.9679274,25.5860711,https://www.finder.fi/Arkkitehtitoimisto+suunnittelutoimisto/Arkkitehtitoimisto+A-Studio+Oy/Oulu/yhteystiedot/843293
Arkkitehtitoimisto A1 Arkkitehdit Oy,Laiturikatu 2,15140,Lahti,60.2483338,24.055869641520736,https://www.finder.fi/Arkkitehtitoimisto+suunnittelutoimisto/Arkkitehtitoimisto+A1+Arkkitehdit+Oy/Lahti/yhteystiedot/2278410
Arkkitehtitoimisto A8,Vääränpolku 10 B,91100,Ii,65.3186319,25.3242469,https://www.finder.fi/Arkkitehtitoimisto+suunnittelutoimisto/Arkkitehtitoimisto+A8/Ii/yhteystiedot/3306678
Arkkitehtitoimisto ARX Oy,Lönnrotinkatu 18 A,00120,Helsinki,60.1622753,24.9268361,https://www.finder.fi/Arkkitehtitoimisto+suunnittelutoimisto/Arkkitehtitoimisto+ARX+Oy/Helsinki/yhteystiedot/330057
Arkkitehtitoimisto AWA - Anneli Vehkaniemi,Salmentakasentie 308,42850,Pohjaslahti,65.5906521,27.6515452,https://www.finder.fi/Arkkitehtitoimisto+suunnittelutoimisto/Arkkitehtitoimisto+AWA+-+Anneli+Vehkaniemi/Pohjaslahti/yhteystiedot/371625
Arkkitehtitoimisto Aalto Markku Oy,Puuskaniementie 1,00850,Helsinki,60.1651167,25.076062801367883,https://www.finder.fi/Arkkitehtitoimisto+suunnittelutoimisto/Arkkitehtitoimisto+Aalto+Markku+Oy/Helsinki/yhteystiedot/125779
Arkkitehtitoimisto Ahlman Stefan,Kalevagatan 18 C,00100,Helsingfors,60.1649288,24.9311335,https://www.finder.fi/Arkkitehtitoimisto+suunnittelutoimisto/Arkkitehtitoimisto+Ahlman+Stefan/Helsingfors/yhteystiedot/125858
Arkkitehtitoimisto Ahonen & Kangasvieri Oy,Finlaysoninkuja 9,33210,Tampere,61.5015276,23.7603771,https://www.finder.fi/Arkkitehtitoimisto+suunnittelutoimisto/Arkkitehtitoimisto+Ahonen+%26+Kangasvieri+Oy/Tampere/yhteystiedot/1519482
Arkkitehtitoimisto AiA,Månvikintie 34 B,02480,Kirkkonummi,60.0368773,24.4942456,https://www.finder.fi/Arkkitehtitoimisto+suunnittelutoimisto/Arkkitehtitoimisto+AiA/Kirkkonummi/yhteystiedot/3235137
Arkkitehtitoimisto Aija Paakkala,Välskärinkatu 7 A,00260,Helsinki,60.425456,22.3098803,https://www.finder.fi/Arkkitehtitoimisto+suunnittelutoimisto/Arkkitehtitoimisto+Aija+Paakkala/Helsinki/yhteystiedot/330129
"Arkkitehtitoimisto Ajk Oy, Arkkitehtuuri-Järjestelmät-Kaavoitus",Äijäntie 20,33470,Ylöjärvi,60.7605432,26.8007074,https://www.finder.fi/Arkkitehtitoimisto+suunnittelutoimisto/Arkkitehtitoimisto+Ajk+Oy+Arkkitehtuuri-J%C3%A4rjestelm%C3%A4t-Kaavoitus/Yl%C3%B6j%C3%A4rvi/yhteystiedot/1639821
Arkkitehtitoimisto Akkuna,Alikyläntie 14,36600,Pälkäne,60.4042633,23.9058411,https://www.finder.fi/Arkkitehtitoimisto+suunnittelutoimisto/Arkkitehtitoimisto+Akkuna/P%C3%A4lk%C3%A4ne/yhteystiedot/3102193
Arkkitehtitoimisto Amberla,Hakolahdentie 15 D,00200,Helsinki,60.1566931,24.8717489,https://www.finder.fi/Arkkitehtitoimisto+suunnittelutoimisto/Arkkitehtitoimisto+Amberla/Helsinki/yhteystiedot/2821318
Arkkitehtitoimisto Ami Oja Tmi,Bulevardi 44,00180,Helsinki,60.161804,24.9313581,https://www.finder.fi/Arkkitehtitoimisto+suunnittelutoimisto/Arkkitehtitoimisto+Ami+Oja+Tmi/Helsinki/yhteystiedot/749035
Arkkitehtitoimisto Anna-Liisa Nisu,Väinö Auerin katu 7 D,00560,Helsinki,60.2089456,24.9680437,https://www.finder.fi/Arkkitehtitoimisto+suunnittelutoimisto/Arkkitehtitoimisto+Anna-Liisa+Nisu/Helsinki/yhteystiedot/1238308
Arkkitehtitoimisto Antti Iskala Oy,Alppitie 12,02700,Kauniainen,65.0346199,25.4601293,https://www.finder.fi/Arkkitehtitoimisto+suunnittelutoimisto/Arkkitehtitoimisto+Antti+Iskala+Oy/Kauniainen/yhteystiedot/125661
Arkkitehtitoimisto Antti Talvitie,Kauppakatu 7,60100,Seinäjoki,62.8924239,27.6922801,https://www.finder.fi/Arkkitehtitoimisto+suunnittelutoimisto/Arkkitehtitoimisto+Antti+Talvitie/Sein%C3%A4joki/yhteystiedot/855997
Arkkitehtitoimisto Arcare Oy,Sibeliuksenkatu 5 C,13100,Hämeenlinna,60.1805668,24.9164946,https://www.finder.fi/Arkkitehtitoimisto+suunnittelutoimisto/Arkkitehtitoimisto+Arcare+Oy/H%C3%A4meenlinna/yhteystiedot/545779
Arkkitehtitoimisto Ark Tao Lauronen Harri,Pihkaniityntie 9,04230,Kerava,60.4164774,25.108969242459604,https://www.finder.fi/Arkkitehtitoimisto+suunnittelutoimisto/Arkkitehtitoimisto+Ark+Tao+Lauronen+Harri/Kerava/yhteystiedot/330054
Arkkitehtitoimisto Ark'idea Oy Helsinki,Leppäsuonkatu 9 C,00100,Helsinki,60.1692906,24.9245397,https://www.finder.fi/Arkkitehtitoimisto+suunnittelutoimisto/Arkkitehtitoimisto+Ark+idea+Oy+Helsinki/Helsinki/yhteystiedot/3244296
Arkkitehtitoimisto Ark-Kantonen Oy,Sepänkatu 14 A,40720,Jyväskylä,60.1593896,24.9403512,https://www.finder.fi/Arkkitehtitoimisto+suunnittelutoimisto/Arkkitehtitoimisto+Ark-Kantonen+Oy/Jyv%C3%A4skyl%C3%A4/yhteystiedot/125656
Arkkitehtitoimisto Arkantti Oy,Muurahaisentie 20,02770,Espoo,60.2132625,24.62474195528449,https://www.finder.fi/Arkkitehtitoimisto+suunnittelutoimisto/Arkkitehtitoimisto+Arkantti+Oy/Espoo/yhteystiedot/125596
Arkkitehtitoimisto Arkas Oy,Pappilankatu 43,05800,Hyvinkää,61.4902941,23.8578748,https://www.finder.fi/Arkkitehtitoimisto+suunnittelutoimisto/Arkkitehtitoimisto+Arkas+Oy/Hyvink%C3%A4%C3%A4/yhteystiedot/3109143
Arkkitehtitoimisto Arkkigraf Oy,Annankatu 2,00120,Helsinki,60.1628376,24.9423458,https://www.finder.fi/Arkkitehtitoimisto+suunnittelutoimisto/Arkkitehtitoimisto+Arkkigraf+Oy/Helsinki/yhteystiedot/232184
Arkkitehtitoimisto Arkkitekta Oy,Puolalankatu 9,20100,Turku,60.4530719,22.2610648,https://www.finder.fi/Arkkitehtitoimisto+suunnittelutoimisto/Arkkitehtitoimisto+Arkkitekta+Oy/Turku/yhteystiedot/125956
Arkkitehtitoimisto Arktiimi Oy,Kiilakiventie 1,90250,Oulu,64.9849929,25.5144972,https://www.finder.fi/Arkkitehtitoimisto+suunnittelutoimisto/Arkkitehtitoimisto+Arktiimi+Oy/Oulu/yhteystiedot/2339755
Arkkitehtitoimisto Arkture Oy,Kauppakatu 15,95400,Tornio,61.0565227,28.1873815,https://www.finder.fi/Arkkitehtitoimisto+suunnittelutoimisto/Arkkitehtitoimisto+Arkture+Oy/Tornio/yhteystiedot/322577
Arkkitehtitoimisto Arkviiri Oy,Mariankatu 14 B 12,15110,Lahti,60.1736797,24.9564681,https://www.finder.fi/Arkkitehtitoimisto+suunnittelutoimisto/Arkkitehtitoimisto+Arkviiri+Oy/Lahti/yhteystiedot/228834
Arkkitehtitoimisto Art Michael Oy,Savontie 5,76100,Pieksämäki,62.3252279,27.8951168,https://www.finder.fi/Arkkitehtitoimisto+suunnittelutoimisto/Arkkitehtitoimisto+Art+Michael+Oy/Pieks%C3%A4m%C3%A4ki/yhteystiedot/310837
Arkkitehtitoimisto Arte,Kelohongankatu,33820,Tampere,61.4620063,23.8291452,https://www.finder.fi/Arkkitehtitoimisto+suunnittelutoimisto/Arkkitehtitoimisto+Arte/Tampere/yhteystiedot/898962
Arkkitehtitoimisto Avaruus,Pursimiehenkatu 3,00150,Helsinki,60.1607046,24.9412829,https://www.finder.fi/Arkkitehtitoimisto+suunnittelutoimisto/Arkkitehtitoimisto+Avaruus/Helsinki/yhteystiedot/330060
Arkkitehtitoimisto Björkman Calle/Arkitektbyrå Björkman Calle,Ehrensvärdsvägen 4-6 C,00150,Helsingfors,60.1557132,24.9370855,https://www.finder.fi/Arkkitehtitoimisto+suunnittelutoimisto/Arkkitehtitoimisto+Bj%C3%B6rkman+Calle+Arkitektbyr%C3%A5+Bj%C3%B6rkman+Calle/Helsingfors/yhteystiedot/330001
Arkkitehtitoimisto Bror Söderman Oy,Itäranta 7,02110,Espoo,60.1750754,24.82445886643086,https://www.finder.fi/Arkkitehtitoimisto+suunnittelutoimisto/Arkkitehtitoimisto+Bror+S%C3%B6derman+Oy/Espoo/yhteystiedot/125675
Arkkitehtitoimisto C & Co Oy,Linnankatu 3 A,20100,Turku,61.4942987,23.8515419,https://www.finder.fi/Arkkitehtitoimisto+suunnittelutoimisto/Arkkitehtitoimisto+C+%26+Co+Oy/Turku/yhteystiedot/125677
Arkkitehtitoimisto CJN Oy,Keilaniementie 1,02150,Espoo,60.1752323,24.8303779,https://www.finder.fi/Arkkitehtitoimisto+suunnittelutoimisto/Arkkitehtitoimisto+CJN+Oy/Espoo/yhteystiedot/125679
Arkkitehtitoimisto Creative Turku,Halisojantie 3,21270,Nousiainen,60.5942834,22.1518134,https://www.finder.fi/Arkkitehtitoimisto+suunnittelutoimisto/Arkkitehtitoimisto+Creative+Turku/Nousiainen/yhteystiedot/2577151
Arkkitehtitoimisto DPI Arkkitehdit,Mäkeläntie 9,14200,Turenki,60.4752673,26.873450421513294,https://www.finder.fi/Arkkitehtitoimisto+suunnittelutoimisto/Arkkitehtitoimisto+DPI+Arkkitehdit/Turenki/yhteystiedot/351430
Arkkitehtitoimisto Design Team Oy,Pohjoinen Hesperiankatu 7,00260,Helsinki,60.1777466,24.9269727,https://www.finder.fi/Arkkitehtitoimisto+suunnittelutoimisto/Arkkitehtitoimisto+Design+Team+Oy/Helsinki/yhteystiedot/1899446
Arkkitehtitoimisto Eero Korhonen Oy,Leikosaarentie 11,00980,Helsinki,60.2023676,25.140522639904276,https://www.finder.fi/Arkkitehtitoimisto+suunnittelutoimisto/Arkkitehtitoimisto+Eero+Korhonen+Oy/Helsinki/yhteystiedot/2275646
Arkkitehtitoimisto Eeva Valla Ky,Lyökkikuja 1 B,02160,Espoo,60.1626013,24.8069435,https://www.finder.fi/Arkkitehtitoimisto+suunnittelutoimisto/Arkkitehtitoimisto+Eeva+Valla+Ky/Espoo/yhteystiedot/791851
Arkkitehtitoimisto Eija Teivas,Valkamankatu 9,37100,Nokia,61.4436115,23.7604694,https://www.finder.fi/Arkkitehtitoimisto+suunnittelutoimisto/Arkkitehtitoimisto+Eija+Teivas/Nokia/yhteystiedot/116613
Arkkitehtitoimisto Elina Ipatti Oy,Jokiniementie 4 A,00650,Helsinki,60.4343193,24.3836592,https://www.finder.fi/Arkkitehtitoimisto+suunnittelutoimisto/Arkkitehtitoimisto+Elina+Ipatti+Oy/Helsinki/yhteystiedot/3185951
Arkkitehtitoimisto Elo,Kartanontie 28,27100,Eurajoki,60.4760596,22.1977067,https://www.finder.fi/Arkkitehtitoimisto+suunnittelutoimisto/Arkkitehtitoimisto+Elo/Eurajoki/yhteystiedot/2814428
Arkkitehtitoimisto Erholtz Markku,Ramsiontie 2,02380,Espoo,60.113011400000005,24.698030106187275,https://www.finder.fi/Arkkitehtitoimisto+suunnittelutoimisto/Arkkitehtitoimisto+Erholtz+Markku/Espoo/yhteystiedot/330063
Arkkitehtitoimisto Erkki Salmi Oy,Hämeenkatu 22,20500,Turku,60.4495982,22.2756294,https://www.finder.fi/Arkkitehtitoimisto+suunnittelutoimisto/Arkkitehtitoimisto+Erkki+Salmi+Oy/Turku/yhteystiedot/356478
Arkkitehtitoimisto Esa Laaksonen Oy,Takaniityntie 12,00780,Helsinki,60.5309618,21.836607,https://www.finder.fi/Arkkitehtitoimisto+suunnittelutoimisto/Arkkitehtitoimisto+Esa+Laaksonen+Oy/Helsinki/yhteystiedot/330106
Arkkitehtitoimisto Esa Piirainen Oy,Niskakatu 18 B,80100,Joensuu,62.6043239,29.754946,https://www.finder.fi/Arkkitehtitoimisto+suunnittelutoimisto/Arkkitehtitoimisto+Esa+Piirainen+Oy/Joensuu/yhteystiedot/3021875
Arkkitehtitoimisto Esko Ryhänen Oy,Ylä-Fallin kuja 10,00690,Helsinki,60.26432405,24.950077299823114,https://www.finder.fi/Arkkitehtitoimisto+suunnittelutoimisto/Arkkitehtitoimisto+Esko+Ryh%C3%A4nen+Oy/Helsinki/yhteystiedot/198487
Arkkitehtitoimisto Ettala Palomeras Oy,Solvikinkatu 10 B,00990,Helsinki,60.2019455,25.1524659,https://www.finder.fi/Arkkitehtitoimisto+suunnittelutoimisto/Arkkitehtitoimisto+Ettala+Palomeras+Oy/Helsinki/yhteystiedot/1537969
Arkkitehtitoimisto Fogel-Michael Oy,Jokimaantie 26 C,05510,Hyvinkää,60.3312257,24.7598173,https://www.finder.fi/Arkkitehtitoimisto+suunnittelutoimisto/Arkkitehtitoimisto+Fogel-Michael+Oy/Hyvink%C3%A4%C3%A4/yhteystiedot/1521572
Arkkitehtitoimisto Frank Oy,Ruusulankatu 3,00260,Helsinki,60.1816479,24.9254356,https://www.finder.fi/Arkkitehtitoimisto+suunnittelutoimisto/Arkkitehtitoimisto+Frank+Oy/Helsinki/yhteystiedot/3291576
Arkkitehtitoimisto Gramatikova & Lindberg Avoin yhtiö,Munkkiniemen puistotie 16,00330,Helsinki,60.1973812,24.8785343,https://www.finder.fi/Arkkitehtitoimisto+suunnittelutoimisto/Arkkitehtitoimisto+Gramatikova+%26+Lindberg+Avoin+yhti%C3%B6/Helsinki/yhteystiedot/941966
Arkkitehtitoimisto HML Oy,Riihikatu 6,90140,Oulu,62.2957505,25.732161348404873,https://www.finder.fi/Arkkitehtitoimisto+suunnittelutoimisto/Arkkitehtitoimisto+HML+Oy/Oulu/yhteystiedot/125751
Arkkitehtitoimisto Hanna Lyytinen Oy,Hämeenkatu 13b,33100,Tampere,60.4509463,22.279224,https://www.finder.fi/Arkkitehtitoimisto+suunnittelutoimisto/Arkkitehtitoimisto+Hanna+Lyytinen+Oy/Tampere/yhteystiedot/366314
Arkkitehtitoimisto Hanna Routa,Jääskeläntie 8,02660,Espoo,60.240884199999996,24.815419300000002,https://www.finder.fi/Arkkitehtitoimisto+suunnittelutoimisto/Arkkitehtitoimisto+Hanna+Routa/Espoo/yhteystiedot/506117
Arkkitehtitoimisto Hannes Häkkinen Oy,Vanha Hämeenkyläntie 25 A,00390,Helsinki,60.250209,24.8333214,https://www.finder.fi/Arkkitehtitoimisto+suunnittelutoimisto/Arkkitehtitoimisto+Hannes+H%C3%A4kkinen+Oy/Helsinki/yhteystiedot/3109895
Arkkitehtitoimisto Hannu Hiltula,Nuottatie 1,93600,Kuusamo,60.1477823,24.74142478742604,https://www.finder.fi/Arkkitehtitoimisto+suunnittelutoimisto/Arkkitehtitoimisto+Hannu+Hiltula/Kuusamo/yhteystiedot/424524
Arkkitehtitoimisto Hannu Puurunen Oy,Kangaslahdentie 6,73100,Lapinlahti,62.2962813,28.9919703,https://www.finder.fi/Arkkitehtitoimisto+suunnittelutoimisto/Arkkitehtitoimisto+Hannu+Puurunen+Oy/Lapinlahti/yhteystiedot/125704
Arkkitehtitoimisto Hannula & Salonen Ky,Pyörörinne 3b,00830,Helsinki,60.1882269,25.0602196,https://www.finder.fi/Arkkitehtitoimisto+suunnittelutoimisto/Arkkitehtitoimisto+Hannula+%26+Salonen+Ky/Helsinki/yhteystiedot/1231482
Arkkitehtitoimisto Heikkilä & Kauppinen Oy,Franzéninkatu 10 A 20,00500,Helsinki,60.1855999,24.9532945,https://www.finder.fi/Arkkitehtitoimisto+suunnittelutoimisto/Arkkitehtitoimisto+Heikkil%C3%A4+%26+Kauppinen+Oy/Helsinki/yhteystiedot/190948
Arkkitehtitoimisto Helamaa & Heiskanen Oy,Häkiläpolku 3,33100,Tampere,61.502922,23.763617,https://www.finder.fi/Arkkitehtitoimisto+suunnittelutoimisto/Arkkitehtitoimisto+Helamaa+%26+Heiskanen+Oy/Tampere/yhteystiedot/116530
Arkkitehtitoimisto Helena Hirviniemi,Rautiontie 11,90660,Oulu,60.2325198,24.9658223,https://www.finder.fi/Arkkitehtitoimisto+suunnittelutoimisto/Arkkitehtitoimisto+Helena+Hirviniemi/Oulu/yhteystiedot/416404
Arkkitehtitoimisto Helena Väisänen,Jokipolventie 15,37130,Nokia,61.5537978,24.079912,https://www.finder.fi/Arkkitehtitoimisto+suunnittelutoimisto/Arkkitehtitoimisto+Helena+V%C3%A4is%C3%A4nen/Nokia/yhteystiedot/117233
Arkkitehtitoimisto Helga Traksel (SAFA),Kokkointie 48 B,03250,Ojakkala,60.3932477,24.3811867,https://www.finder.fi/Arkkitehtitoimisto+suunnittelutoimisto/Arkkitehtitoimisto+Helga+Traksel+SAFA/Ojakkala/yhteystiedot/3037185
Arkkitehtitoimisto Hilkka Maija Antila Ky,Kauppakatu 1,62100,Lapua,62.7047036,25.2613553,https://www.finder.fi/Arkkitehtitoimisto+suunnittelutoimisto/Arkkitehtitoimisto+Hilkka+Maija+Antila+Ky/Lapua/yhteystiedot/509354
Arkkitehtitoimisto Hirvilammi Oy,Honkakuja 16,60100,Seinäjoki,60.457018250000004,22.312766749999994,https://www.finder.fi/Arkkitehtitoimisto+suunnittelutoimisto/Arkkitehtitoimisto+Hirvilammi+Oy/Sein%C3%A4joki/yhteystiedot/3047000
Arkkitehtitoimisto Hormia Oy,Kadetintie 12,00330,Helsinki,60.1961115,24.8802146,https://www.finder.fi/Arkkitehtitoimisto+suunnittelutoimisto/Arkkitehtitoimisto+Hormia+Oy/Helsinki/yhteystiedot/125715
Arkkitehtitoimisto Horn Stephan Arkitektbyrå,Solgränd 7,10960,Hangö norra,60.2693551,25.04023074338059,https://www.finder.fi/Arkkitehtitoimisto+suunnittelutoimisto/Arkkitehtitoimisto+Horn+Stephan+Arkitektbyr%C3%A5/Hang%C3%B6+norra/yhteystiedot/125860
Arkkitehtitoimisto Huhtiniemi,Lepolantie 90,00660,Helsinki,61.4649583,23.7458529,https://www.finder.fi/Arkkitehtitoimisto+suunnittelutoimisto/Arkkitehtitoimisto+Huhtiniemi/Helsinki/yhteystiedot/330076
Arkkitehtitoimisto Humus Ky,Kajanuksenkatu 10 A,00250,Helsinki,60.1834603,24.9145708,https://www.finder.fi/Arkkitehtitoimisto+suunnittelutoimisto/Arkkitehtitoimisto+Humus+Ky/Helsinki/yhteystiedot/882307
Arkkitehtitoimisto Huttunen Hannu Oy,Pursimiehenkatu 26 C,00150,Helsinki,60.1607481,24.9417164,https://www.finder.fi/Arkkitehtitoimisto+suunnittelutoimisto/Arkkitehtitoimisto+Huttunen+Hannu+Oy/Helsinki/yhteystiedot/125702
Arkkitehtitoimisto Hyvärinen Kari,Töölöntorinkatu 2 B,00260,Helsinki,60.1780205,24.924916,https://www.finder.fi/Arkkitehtitoimisto+suunnittelutoimisto/Arkkitehtitoimisto+Hyv%C3%A4rinen+Kari/Helsinki/yhteystiedot/125753
Arkkitehtitoimisto Häkli Ky,Damaskuksentie 4,00560,Helsinki,60.2097116,24.973651891941177,https://www.finder.fi/Arkkitehtitoimisto+suunnittelutoimisto/Arkkitehtitoimisto+H%C3%A4kli+Ky/Helsinki/yhteystiedot/232237
Arkkitehtitoimisto I & M Pyykkö Oy,Elisenvaarankuja 5 a,02140,Espoo,60.20468,24.8096542,https://www.finder.fi/Arkkitehtitoimisto+suunnittelutoimisto/Arkkitehtitoimisto+I+%26+M+Pyykk%C3%B6+Oy/Espoo/yhteystiedot/964100
Arkkitehtitoimisto Iarc Oy,Haukisenraitti 4,33820,Tampere,61.468712,23.8017637,https://www.finder.fi/Arkkitehtitoimisto+suunnittelutoimisto/Arkkitehtitoimisto+Iarc+Oy/Tampere/yhteystiedot/3211039
Arkkitehtitoimisto Ideark Oy,Tuulaspolku 5 B,00330,Helsinki,60.1997712,24.8669989,https://www.finder.fi/Arkkitehtitoimisto+suunnittelutoimisto/Arkkitehtitoimisto+Ideark+Oy/Helsinki/yhteystiedot/330077
Arkkitehtitoimisto Iiro Mikkola Oy,Puistokatu 3 C,00140,Helsinki,62.724731,29.0489207,https://www.finder.fi/Arkkitehtitoimisto+suunnittelutoimisto/Arkkitehtitoimisto+Iiro+Mikkola+Oy/Helsinki/yhteystiedot/837300
Arkkitehtitoimisto Ilkka Vainiomäki,Masonrinne 24,40520,Jyväskylä,62.2121621,25.766256394519885,https://www.finder.fi/Arkkitehtitoimisto+suunnittelutoimisto/Arkkitehtitoimisto+Ilkka+Vainiom%C3%A4ki/Jyv%C3%A4skyl%C3%A4/yhteystiedot/377124
Arkkitehtitoimisto Ilona Palmunen,Pietarinkatu 14,00140,Helsinki,60.1570864,24.9470354,https://www.finder.fi/Arkkitehtitoimisto+suunnittelutoimisto/Arkkitehtitoimisto+Ilona+Palmunen/Helsinki/yhteystiedot/3022158
Arkkitehtitoimisto Immo Teperi Oy,Valkjärventie 557,01860,Perttula,60.1894547,24.8002418,https://www.finder.fi/Arkkitehtitoimisto+suunnittelutoimisto/Arkkitehtitoimisto+Immo+Teperi+Oy/Perttula/yhteystiedot/2505124
Arkkitehtitoimisto J & J Ky,Katinhäntä 9 A,21100,Naantali,61.0757929,26.0526715,https://www.finder.fi/Arkkitehtitoimisto+suunnittelutoimisto/Arkkitehtitoimisto+J+%26+J+Ky/Naantali/yhteystiedot/356470
Arkkitehtitoimisto J Palmqvist Oy,Rajaniitynkatu 1,04420,Järvenpää,60.4570249,25.11508240431801,https://www.finder.fi/Arkkitehtitoimisto+suunnittelutoimisto/Arkkitehtitoimisto+J+Palmqvist+Oy/J%C3%A4rvenp%C3%A4%C3%A4/yhteystiedot/125721
Arkkitehtitoimisto J. Laiho Arkplan Ky,Levonmäenkatu 11,33710,Tampere,61.46704835,23.903081674691794,https://www.finder.fi/Arkkitehtitoimisto+suunnittelutoimisto/Arkkitehtitoimisto+J+Laiho+Arkplan+Ky/Tampere/yhteystiedot/116615
Arkkitehtitoimisto J10 Oy,Anna Liljan katu 1,33240,Tampere,61.4952845,23.7132146,https://www.finder.fi/Arkkitehtitoimisto+suunnittelutoimisto/Arkkitehtitoimisto+J10+Oy/Tampere/yhteystiedot/2480955
Arkkitehtitoimisto JOARC,Itälahdenkatu 25,00210,Helsinki,60.1521171,24.880521,https://www.finder.fi/Arkkitehtitoimisto+suunnittelutoimisto/Arkkitehtitoimisto+JOARC/Helsinki/yhteystiedot/952105
Arkkitehtitoimisto Jaakko Eskelinen Oy,Asemalammentie 57,41370,Kuusa,62.4651893,25.9505534,https://www.finder.fi/Arkkitehtitoimisto+suunnittelutoimisto/Arkkitehtitoimisto+Jaakko+Eskelinen+Oy/Kuusa/yhteystiedot/125912
Arkkitehtitoimisto Jalo Läspä Oy ,Männistönkatu 6,08150,Lohja,61.0550268,28.2151905,https://www.finder.fi/Arkkitehtitoimisto+suunnittelutoimisto/Arkkitehtitoimisto+Jalo+L%C3%A4sp%C3%A4+Oy/Lohja/yhteystiedot/720905
Arkkitehtitoimisto Jari Haapalahti,Tuppelantie 20b,90650,Oulu,64.9960393,25.5799234,https://www.finder.fi/Arkkitehtitoimisto+suunnittelutoimisto/Arkkitehtitoimisto+Jari+Haapalahti/Oulu/yhteystiedot/2919147
Arkkitehtitoimisto Jari Holopainen Oy,Käpyläntie 4 C,00610,Helsinki,60.2245214,24.9607277,https://www.finder.fi/Arkkitehtitoimisto+suunnittelutoimisto/Arkkitehtitoimisto+Jari+Holopainen+Oy/Helsinki/yhteystiedot/330074
Arkkitehtitoimisto Jari Tamminen Oy,Torikatu 2 2. krs,05800,Hyvinkää,45.4915873,38.6429394,https://www.finder.fi/Arkkitehtitoimisto+suunnittelutoimisto/Arkkitehtitoimisto+Jari+Tamminen+Oy/Hyvink%C3%A4%C3%A4/yhteystiedot/125726
Arkkitehtitoimisto Jarmo Lokio Oy,Kauppakatu 15,95400,Tornio,61.0565227,28.1873815,https://www.finder.fi/Arkkitehtitoimisto+suunnittelutoimisto/Arkkitehtitoimisto+Jarmo+Lokio+Oy/Tornio/yhteystiedot/3181693
Arkkitehtitoimisto Jarmo Saarinen Oy,Käsityöläiskatu 5 B,20100,Turku,63.1083815,21.5999922,https://www.finder.fi/Arkkitehtitoimisto+suunnittelutoimisto/Arkkitehtitoimisto+Jarmo+Saarinen+Oy/Turku/yhteystiedot/125728
Arkkitehtitoimisto Jarmo Sulonen Oy,Hahmajärventie 78,16500,Herrala,61.603356,25.0108007,https://www.finder.fi/Arkkitehtitoimisto+suunnittelutoimisto/Arkkitehtitoimisto+Jarmo+Sulonen+Oy/Herrala/yhteystiedot/913350
Arkkitehtitoimisto Jokela Olli Pekka,Henrik Sohlbergin tie 8,00640,Helsinki,60.23749255,24.968354076325554,https://www.finder.fi/Arkkitehtitoimisto+suunnittelutoimisto/Arkkitehtitoimisto+Jokela+Olli+Pekka/Helsinki/yhteystiedot/125616
Arkkitehtitoimisto Jorma Toivonen Oy,Varvintie 97,68620,Pietarsaari,60.3660514,22.1932492,https://www.finder.fi/Arkkitehtitoimisto+suunnittelutoimisto/Arkkitehtitoimisto+Jorma+Toivonen+Oy/Pietarsaari/yhteystiedot/125734
Arkkitehtitoimisto Jouni Pitkäranta,Ketojenkatu 8,60320,Seinäjoki,62.7912082,22.804525559651193,https://www.finder.fi/Arkkitehtitoimisto+suunnittelutoimisto/Arkkitehtitoimisto+Jouni+Pitk%C3%A4ranta/Sein%C3%A4joki/yhteystiedot/521146
Arkkitehtitoimisto Jouni Saarinen Oy,Harjumäentie 3 A,02730,Espoo,60.2551638,24.7688642,https://www.finder.fi/Arkkitehtitoimisto+suunnittelutoimisto/Arkkitehtitoimisto+Jouni+Saarinen+Oy/Espoo/yhteystiedot/2278501
